{
"type": "FeatureCollection",
"name": "clean_edu",
"crs": { "type": "name", "properties": { "name": "urn:ogc:def:crs:OGC:1.3:CRS84" } },
"features": [
{ "type": "Feature", "properties": { "nombre": "+ GestionCanarias", "actividad_tipo": "enseñanza especializada", "municipio": "La Victoria", "calle": "Perez Diaz", "numero": "78", "web": "www.masgestioncanarias.com", "direccion_completa": "Perez Diaz, 78", "grupo_edu": "Formacion", "peso_inicial": 6.0 }, "geometry": { "type": "Point", "coordinates": [ -16.47029098, 28.43441646 ] } },
{ "type": "Feature", "properties": { "nombre": "30 Nudos Kite School", "actividad_tipo": "enseñanza especializada", "municipio": "Granadilla de Abona", "calle": "Nuestra Señora Mercedes de Roja", "numero": "24", "web": "www.30nudos.com", "direccion_completa": "Nuestra Señora Mercedes de Roja, 24", "grupo_edu": "Formacion", "peso_inicial": 6.0 }, "geometry": { "type": "Point", "coordinates": [ -16.540313, 28.04341793 ] } },
{ "type": "Feature", "properties": { "nombre": "Academia", "actividad_tipo": "enseñanza especializada", "municipio": "Santa Cruz de Tenerife", "calle": "San Sebastian", "numero": "136", "web": null, "direccion_completa": "San Sebastian, 136", "grupo_edu": "Formacion", "peso_inicial": 6.0 }, "geometry": { "type": "Point", "coordinates": [ -16.258207, 28.46357699 ] } },
{ "type": "Feature", "properties": { "nombre": "Academia Anais", "actividad_tipo": "enseñanza especializada", "municipio": "El Sauzal", "calle": "Las Palmeras", "numero": "23", "web": null, "direccion_completa": "Las Palmeras, 23", "grupo_edu": "Formacion", "peso_inicial": 6.0 }, "geometry": { "type": "Point", "coordinates": [ -16.43300899, 28.48061585 ] } },
{ "type": "Feature", "properties": { "nombre": "Academia Cervantes", "actividad_tipo": "enseñanza especializada", "municipio": "Santa Cruz de Tenerife", "calle": "Alvarez de Lugo", "numero": "42", "web": null, "direccion_completa": "Alvarez de Lugo, 42", "grupo_edu": "Formacion", "peso_inicial": 6.0 }, "geometry": { "type": "Point", "coordinates": [ -16.25816884, 28.46729034 ] } },
{ "type": "Feature", "properties": { "nombre": "Academia Culturae", "actividad_tipo": "enseñanza especializada", "municipio": "Candelaria", "calle": "Maritima", "numero": "19", "web": null, "direccion_completa": "Maritima, 19", "grupo_edu": "Formacion", "peso_inicial": 6.0 }, "geometry": { "type": "Point", "coordinates": [ -16.36686522, 28.36115836 ] } },
{ "type": "Feature", "properties": { "nombre": "Academia Damian", "actividad_tipo": "enseñanza especializada", "municipio": "Granadilla de Abona", "calle": "Fundador Gonzalo Gonzalez", "numero": "17", "web": null, "direccion_completa": "Fundador Gonzalo Gonzalez, 17", "grupo_edu": "Formacion", "peso_inicial": 6.0 }, "geometry": { "type": "Point", "coordinates": [ -16.576678, 28.11956219 ] } },
{ "type": "Feature", "properties": { "nombre": "Academia de Baile Nuevo Ritmo", "actividad_tipo": "enseñanza especializada", "municipio": "Los Realejos", "calle": "Puldon Natero", "numero": "25", "web": null, "direccion_completa": "Puldon Natero, 25", "grupo_edu": "Formacion", "peso_inicial": 6.0 }, "geometry": { "type": "Point", "coordinates": [ -16.56547183, 28.37909598 ] } },
{ "type": "Feature", "properties": { "nombre": "Academia de danza", "actividad_tipo": "enseñanza especializada", "municipio": "Granadilla de Abona", "calle": "Abona", "numero": "9", "web": "www.academiacristinapulido.com", "direccion_completa": "Abona, 9", "grupo_edu": "Formacion", "peso_inicial": 6.0 }, "geometry": { "type": "Point", "coordinates": [ -16.561501, 28.08426699 ] } },
{ "type": "Feature", "properties": { "nombre": "Academia de Idiomas Audio Studio", "actividad_tipo": "enseñanza idiomas", "municipio": "Arona", "calle": "Amsterdam", "numero": "1", "web": null, "direccion_completa": "Amsterdam, 1", "grupo_edu": "Formacion", "peso_inicial": 6.0 }, "geometry": { "type": "Point", "coordinates": [ -16.71326991, 28.05379896 ] } },
{ "type": "Feature", "properties": { "nombre": "Academia de Idiomas Britannia", "actividad_tipo": "enseñanza idiomas", "municipio": "Arona", "calle": "Amsterdam", "numero": "3", "web": null, "direccion_completa": "Amsterdam, 3", "grupo_edu": "Formacion", "peso_inicial": 6.0 }, "geometry": { "type": "Point", "coordinates": [ -16.71159994, 28.05357494 ] } },
{ "type": "Feature", "properties": { "nombre": "Academia de Idiomas Galfir", "actividad_tipo": "enseñanza idiomas", "municipio": "La Laguna", "calle": "Los Menceyes", "numero": "184", "web": null, "direccion_completa": "Los Menceyes, 184", "grupo_edu": "Formacion", "peso_inicial": 6.0 }, "geometry": { "type": "Point", "coordinates": [ -16.295623, 28.46973799 ] } },
{ "type": "Feature", "properties": { "nombre": "Academia de Musica Tremolo", "actividad_tipo": "enseñanza especializada", "municipio": "Granadilla de Abona", "calle": "Orchilla", "numero": "1", "web": null, "direccion_completa": "Orchilla, 1", "grupo_edu": "Formacion", "peso_inicial": 6.0 }, "geometry": { "type": "Point", "coordinates": [ -16.583282, 28.10273071 ] } },
{ "type": "Feature", "properties": { "nombre": "Academia de Peluqueria y Estetica Imagen Valle", "actividad_tipo": "enseñanza profesional", "municipio": "Arona", "calle": "La Bermuda", "numero": "4", "web": null, "direccion_completa": "La Bermuda, 4", "grupo_edu": "Formacion", "peso_inicial": 6.0 }, "geometry": { "type": "Point", "coordinates": [ -16.65847156, 28.08412326 ] } },
{ "type": "Feature", "properties": { "nombre": "Academia Intelectum", "actividad_tipo": "enseñanza especializada", "municipio": "Granadilla de Abona", "calle": "Mencey", "numero": "1", "web": null, "direccion_completa": "Mencey, 1", "grupo_edu": "Formacion", "peso_inicial": 6.0 }, "geometry": { "type": "Point", "coordinates": [ -16.58796, 28.11205939 ] } },
{ "type": "Feature", "properties": { "nombre": "Academia ISE Language School", "actividad_tipo": "enseñanza idiomas", "municipio": "La Laguna", "calle": "Obispo Rey Redondo", "numero": "52", "web": "www.isetenerife.com", "direccion_completa": "Obispo Rey Redondo, 52", "grupo_edu": "Formacion", "peso_inicial": 6.0 }, "geometry": { "type": "Point", "coordinates": [ -16.31800169, 28.48945356 ] } },
{ "type": "Feature", "properties": { "nombre": "Academia Mararia", "actividad_tipo": "enseñanza especializada", "municipio": "Puerto de la Cruz", "calle": "La Virtud", "numero": "3", "web": null, "direccion_completa": "La Virtud, 3", "grupo_edu": "Formacion", "peso_inicial": 6.0 }, "geometry": { "type": "Point", "coordinates": [ -16.547942, 28.41552899 ] } },
{ "type": "Feature", "properties": { "nombre": "Academia Pirámide", "actividad_tipo": "enseñanza profesional", "municipio": "Guía de Isora", "calle": "Los Pescadores", "numero": "8", "web": null, "direccion_completa": "Los Pescadores, 8", "grupo_edu": "Formacion", "peso_inicial": 6.0 }, "geometry": { "type": "Point", "coordinates": [ -16.82733384, 28.20161919 ] } },
{ "type": "Feature", "properties": { "nombre": "Academia Rayuela", "actividad_tipo": "enseñanza especializada", "municipio": "San Miguel", "calle": "General TF 28 Sur", "numero": "85", "web": "rayuela.tusacademias.com", "direccion_completa": "General TF 28 Sur, 85", "grupo_edu": "Formacion", "peso_inicial": 6.0 }, "geometry": { "type": "Point", "coordinates": [ -16.61650069, 28.09947302 ] } },
{ "type": "Feature", "properties": { "nombre": "Academia Se Puede", "actividad_tipo": "enseñanza especializada", "municipio": "Güimar", "calle": "Santa Cruz", "numero": "48", "web": null, "direccion_completa": "Santa Cruz, 48", "grupo_edu": "Formacion", "peso_inicial": 6.0 }, "geometry": { "type": "Point", "coordinates": [ -16.4083217, 28.31831486 ] } },
{ "type": "Feature", "properties": { "nombre": "Academia Sothis Centros de Formacion", "actividad_tipo": "enseñanza especializada", "municipio": "Arona", "calle": "Rodeo", "numero": "6", "web": null, "direccion_completa": "Rodeo, 6", "grupo_edu": "Formacion", "peso_inicial": 6.0 }, "geometry": { "type": "Point", "coordinates": [ -16.70491768, 28.05107153 ] } },
{ "type": "Feature", "properties": { "nombre": "Academia Yanes", "actividad_tipo": "enseñanza especializada", "municipio": "Granadilla de Abona", "calle": "Mata", "numero": "8", "web": null, "direccion_completa": "Mata, 8", "grupo_edu": "Formacion", "peso_inicial": 6.0 }, "geometry": { "type": "Point", "coordinates": [ -16.55976348, 28.07757116 ] } },
{ "type": "Feature", "properties": { "nombre": "Academy Language United", "actividad_tipo": "enseñanza especializada", "municipio": "Los Realejos", "calle": "Toscal", "numero": null, "web": "united-language-academy.ueniweb.com", "direccion_completa": "Toscal, NA", "grupo_edu": "Formacion", "peso_inicial": 6.0 }, "geometry": { "type": "Point", "coordinates": [ -16.57501065, 28.39942861 ] } },
{ "type": "Feature", "properties": { "nombre": "Acero Academia", "actividad_tipo": "enseñanza especializada", "municipio": "Tacoronte", "calle": "General TF 152 Norte", "numero": "47", "web": "aceroacademia.com", "direccion_completa": "General TF 152 Norte, 47", "grupo_edu": "Formacion", "peso_inicial": 6.0 }, "geometry": { "type": "Point", "coordinates": [ -16.41451464, 28.4772463 ] } },
{ "type": "Feature", "properties": { "nombre": "AEOI Santa Úrsula", "actividad_tipo": "enseñanza idiomas", "municipio": "Santa Úrsula", "calle": "Alcalde Domingo Gutiérrez", "numero": "1", "web": null, "direccion_completa": "Alcalde Domingo Gutiérrez, 1", "grupo_edu": "Formacion", "peso_inicial": 6.0 }, "geometry": { "type": "Point", "coordinates": [ -16.50060001, 28.42017226 ] } },
{ "type": "Feature", "properties": { "nombre": "AFORECA", "actividad_tipo": "enseñanza especializada", "municipio": "Buenavista del Norte", "calle": "Juan Mendez El Viejo", "numero": "7", "web": null, "direccion_completa": "Juan Mendez El Viejo, 7", "grupo_edu": "Formacion", "peso_inicial": 6.0 }, "geometry": { "type": "Point", "coordinates": [ -16.84922109, 28.37023574 ] } },
{ "type": "Feature", "properties": { "nombre": "Anglo Saxon Academy", "actividad_tipo": "enseñanza idiomas", "municipio": "Santa Cruz de Tenerife", "calle": "Veinticinco de Julio", "numero": "4", "web": null, "direccion_completa": "Veinticinco de Julio, 4", "grupo_edu": "Formacion", "peso_inicial": 6.0 }, "geometry": { "type": "Point", "coordinates": [ -16.25611199, 28.47065072 ] } },
{ "type": "Feature", "properties": { "nombre": "Aprende Gabinete Multidisciplinar", "actividad_tipo": "enseñanza especializada", "municipio": "Santa Úrsula", "calle": "España TF 217", "numero": "26", "web": null, "direccion_completa": "España TF 217, 26", "grupo_edu": "Formacion", "peso_inicial": 6.0 }, "geometry": { "type": "Point", "coordinates": [ -16.48999164, 28.42532031 ] } },
{ "type": "Feature", "properties": { "nombre": "Archivo Historico Diocesano La Laguna", "actividad_tipo": "biblioteca ludoteca", "municipio": "La Laguna", "calle": "Anchieta", "numero": "23", "web": "www.obispadodetenerife.es", "direccion_completa": "Anchieta, 23", "grupo_edu": "Cultura", "peso_inicial": 4.0 }, "geometry": { "type": "Point", "coordinates": [ -16.31572966, 28.49050416 ] } },
{ "type": "Feature", "properties": { "nombre": "Archivo Historico Municipal", "actividad_tipo": "biblioteca ludoteca", "municipio": "Garachico", "calle": "La Libertad", "numero": "1", "web": "www.garachico.es", "direccion_completa": "La Libertad, 1", "grupo_edu": "Cultura", "peso_inicial": 4.0 }, "geometry": { "type": "Point", "coordinates": [ -16.76433552, 28.37294982 ] } },
{ "type": "Feature", "properties": { "nombre": "Archivo Historico Municipal La Laguna", "actividad_tipo": "biblioteca ludoteca", "municipio": "La Laguna", "calle": "Obispo Rey Redondo", "numero": "1", "web": "www.aytolalaguna.com", "direccion_completa": "Obispo Rey Redondo, 1", "grupo_edu": "Cultura", "peso_inicial": 4.0 }, "geometry": { "type": "Point", "coordinates": [ -16.31435305, 28.48728662 ] } },
{ "type": "Feature", "properties": { "nombre": "Archivo Historico Provincial santa Cruz Tenerife", "actividad_tipo": "biblioteca ludoteca", "municipio": "La Laguna", "calle": "La Hornera", "numero": "78", "web": "www.facebook.com/archivoshistoricotfe", "direccion_completa": "La Hornera, 78", "grupo_edu": "Cultura", "peso_inicial": 4.0 }, "geometry": { "type": "Point", "coordinates": [ -16.30823677, 28.47201737 ] } },
{ "type": "Feature", "properties": { "nombre": "Archivo Municipal", "actividad_tipo": "biblioteca ludoteca", "municipio": "La Victoria", "calle": "Añate", "numero": "1", "web": "www.lavictoriadeacentejo.es", "direccion_completa": "Añate, 1", "grupo_edu": "Cultura", "peso_inicial": 4.0 }, "geometry": { "type": "Point", "coordinates": [ -16.47137153, 28.43252655 ] } },
{ "type": "Feature", "properties": { "nombre": "Area 51", "actividad_tipo": "enseñanza especializada", "municipio": "Los Realejos", "calle": "Tres de Mayo", "numero": "20", "web": null, "direccion_completa": "Tres de Mayo, 20", "grupo_edu": "Formacion", "peso_inicial": 6.0 }, "geometry": { "type": "Point", "coordinates": [ -16.5845369, 28.3821617 ] } },
{ "type": "Feature", "properties": { "nombre": "Arte Galeria", "actividad_tipo": "museos salas de arte", "municipio": "Granadilla de Abona", "calle": "San Francisco", "numero": "4", "web": null, "direccion_completa": "San Francisco, 4", "grupo_edu": "Cultura", "peso_inicial": 4.0 }, "geometry": { "type": "Point", "coordinates": [ -16.577384, 28.12308689 ] } },
{ "type": "Feature", "properties": { "nombre": "Asoc. Canaria Atacayte", "actividad_tipo": "enseñanza profesional", "municipio": "El Sauzal", "calle": "Inmaculada Concepcion", "numero": "23", "web": null, "direccion_completa": "Inmaculada Concepcion, 23", "grupo_edu": "Formacion", "peso_inicial": 6.0 }, "geometry": { "type": "Point", "coordinates": [ -16.43392691, 28.48013525 ] } },
{ "type": "Feature", "properties": { "nombre": "Asoc. Formacion e Insercion Laboral en Canarias AFILCAa", "actividad_tipo": "enseñanza profesional", "municipio": "El Sauzal", "calle": "Inmaculada Concepcion", "numero": "23", "web": null, "direccion_completa": "Inmaculada Concepcion, 23", "grupo_edu": "Formacion", "peso_inicial": 6.0 }, "geometry": { "type": "Point", "coordinates": [ -16.43396754, 28.48006524 ] } },
{ "type": "Feature", "properties": { "nombre": "Asoc. Insercion Laboral y Fomento del Economia Social ACTUA", "actividad_tipo": "enseñanza profesional", "municipio": "El Sauzal", "calle": "Inmaculada Concepcion", "numero": "23", "web": null, "direccion_completa": "Inmaculada Concepcion, 23", "grupo_edu": "Formacion", "peso_inicial": 6.0 }, "geometry": { "type": "Point", "coordinates": [ -16.4338694, 28.48018478 ] } },
{ "type": "Feature", "properties": { "nombre": "Asociacion Generacion 21", "actividad_tipo": "enseñanza profesional", "municipio": "El Sauzal", "calle": "Inmaculada Concepcion", "numero": "23", "web": "www.generacion21.org.es", "direccion_completa": "Inmaculada Concepcion, 23", "grupo_edu": "Formacion", "peso_inicial": 6.0 }, "geometry": { "type": "Point", "coordinates": [ -16.43385901, 28.48015203 ] } },
{ "type": "Feature", "properties": { "nombre": "Ateneo de La Laguna", "actividad_tipo": "centro cultural", "municipio": "La Laguna", "calle": "Los Remedios", "numero": "3", "web": "www.ateneolalaguna.es", "direccion_completa": "Los Remedios, 3", "grupo_edu": "Cultura", "peso_inicial": 4.0 }, "geometry": { "type": "Point", "coordinates": [ -16.31674613, 28.48905572 ] } },
{ "type": "Feature", "properties": { "nombre": "Auditorio de Tenerife Adan Martin", "actividad_tipo": "centro cultural", "municipio": "Santa Cruz de Tenerife", "calle": "Constitucion", "numero": "1", "web": "www.auditoriodetenerife.com", "direccion_completa": "Constitucion, 1", "grupo_edu": "Cultura", "peso_inicial": 4.0 }, "geometry": { "type": "Point", "coordinates": [ -16.25146942, 28.45609409 ] } },
{ "type": "Feature", "properties": { "nombre": "Auditorio Teobaldo Power", "actividad_tipo": "centro cultural", "municipio": "La Orotava", "calle": "Cantos Canarios", "numero": "1", "web": null, "direccion_completa": "Cantos Canarios, 1", "grupo_edu": "Cultura", "peso_inicial": 4.0 }, "geometry": { "type": "Point", "coordinates": [ -16.52230795, 28.3915499 ] } },
{ "type": "Feature", "properties": { "nombre": "Aula Acentejo", "actividad_tipo": "enseñanza idiomas", "municipio": "Santa Úrsula", "calle": "Leoncio Rodriguez", "numero": "1", "web": "www.aulaacentejo.com", "direccion_completa": "Leoncio Rodriguez, 1", "grupo_edu": "Formacion", "peso_inicial": 6.0 }, "geometry": { "type": "Point", "coordinates": [ -16.4888008, 28.42577285 ] } },
{ "type": "Feature", "properties": { "nombre": "Aula de Interpretacion", "actividad_tipo": "enseñanza especializada", "municipio": "Vilaflor", "calle": "San Roque", "numero": "9", "web": "www.vilaflordechasna.es", "direccion_completa": "San Roque, 9", "grupo_edu": "Formacion", "peso_inicial": 6.0 }, "geometry": { "type": "Point", "coordinates": [ -16.642619, 28.16073399 ] } },
{ "type": "Feature", "properties": { "nombre": "Aula de Música Alcalá", "actividad_tipo": "enseñanza especializada", "municipio": "Guía de Isora", "calle": "Nuñez de Balboa", "numero": "9", "web": null, "direccion_completa": "Nuñez de Balboa, 9", "grupo_edu": "Formacion", "peso_inicial": 6.0 }, "geometry": { "type": "Point", "coordinates": [ -16.82802028, 28.20231655 ] } },
{ "type": "Feature", "properties": { "nombre": "Aulas Huerto Escolar", "actividad_tipo": "enseñanza especializada", "municipio": "Los Realejos", "calle": "Palo Blanco", "numero": "0", "web": null, "direccion_completa": "Palo Blanco, 0", "grupo_edu": "Formacion", "peso_inicial": 6.0 }, "geometry": { "type": "Point", "coordinates": [ -16.57511399, 28.36181099 ] } },
{ "type": "Feature", "properties": { "nombre": "Aviation Campus", "actividad_tipo": "enseñanza profesional", "municipio": "Santa Cruz de Tenerife", "calle": "Fuente de Santa Cruz", "numero": "3", "web": "https://flycanavia.com/", "direccion_completa": "Fuente de Santa Cruz, 3", "grupo_edu": "Formacion", "peso_inicial": 6.0 }, "geometry": { "type": "Point", "coordinates": [ -16.25494367, 28.45636927 ] } },
{ "type": "Feature", "properties": { "nombre": "Babel Languaje Academy", "actividad_tipo": "enseñanza idiomas", "municipio": "Granadilla de Abona", "calle": "Galicia", "numero": "13", "web": "www.babelacademy.es", "direccion_completa": "Galicia, 13", "grupo_edu": "Formacion", "peso_inicial": 6.0 }, "geometry": { "type": "Point", "coordinates": [ -16.535713, 28.04616509 ] } },
{ "type": "Feature", "properties": { "nombre": "Benaiga", "actividad_tipo": "enseñanza especializada", "municipio": "Granadilla de Abona", "calle": "Mencey de Abona", "numero": "62", "web": null, "direccion_completa": "Mencey de Abona, 62", "grupo_edu": "Formacion", "peso_inicial": 6.0 }, "geometry": { "type": "Point", "coordinates": [ -16.57953508, 28.11608914 ] } },
{ "type": "Feature", "properties": { "nombre": "Biblioteca Antonio Bello", "actividad_tipo": "biblioteca ludoteca", "municipio": "San Juan de la Rambla", "calle": "El Sol", "numero": "3", "web": null, "direccion_completa": "El Sol, 3", "grupo_edu": "Cultura", "peso_inicial": 4.0 }, "geometry": { "type": "Point", "coordinates": [ -16.64697632, 28.39404083 ] } },
{ "type": "Feature", "properties": { "nombre": "Biblioteca Centro Penitenciario de Tenerife", "actividad_tipo": "biblioteca ludoteca", "municipio": "El Rosario", "calle": "Escaño", "numero": "17", "web": null, "direccion_completa": "Escaño, 17", "grupo_edu": "Cultura", "peso_inicial": 4.0 }, "geometry": { "type": "Point", "coordinates": [ -16.34271791, 28.45333835 ] } },
{ "type": "Feature", "properties": { "nombre": "Biblioteca Municipal Adeje - Armeñime", "actividad_tipo": "biblioteca ludoteca", "municipio": "Adeje", "calle": "Leon Felipe", "numero": "7", "web": "www.adeje.es/esp/258_red_de_bibliotecas.asp", "direccion_completa": "Leon Felipe, 7", "grupo_edu": "Cultura", "peso_inicial": 4.0 }, "geometry": { "type": "Point", "coordinates": [ -16.75539358, 28.12889838 ] } },
{ "type": "Feature", "properties": { "nombre": "Biblioteca Municipal Adeje - Canaria", "actividad_tipo": "biblioteca ludoteca", "municipio": "Adeje", "calle": "Grande", "numero": "38", "web": "www.adeje.es/esp/258_red_de_bibliotecas.asp", "direccion_completa": "Grande, 38", "grupo_edu": "Cultura", "peso_inicial": 4.0 }, "geometry": { "type": "Point", "coordinates": [ -16.72494812, 28.12163171 ] } },
{ "type": "Feature", "properties": { "nombre": "Biblioteca Municipal Adeje - Fañabe", "actividad_tipo": "biblioteca ludoteca", "municipio": "Adeje", "calle": "Alegranza", "numero": "191", "web": "www.adeje.es/esp/258_red_de_bibliotecas.asp", "direccion_completa": "Alegranza, 191", "grupo_edu": "Cultura", "peso_inicial": 4.0 }, "geometry": { "type": "Point", "coordinates": [ -16.73092733, 28.10735915 ] } },
{ "type": "Feature", "properties": { "nombre": "Biblioteca Municipal Adeje - Los Menores", "actividad_tipo": "biblioteca ludoteca", "municipio": "Adeje", "calle": "Virgen de Fatima", "numero": "12", "web": "www.adeje.es/esp/258_red_de_bibliotecas.asp", "direccion_completa": "Virgen de Fatima, 12", "grupo_edu": "Cultura", "peso_inicial": 4.0 }, "geometry": { "type": "Point", "coordinates": [ -16.75463404, 28.13978783 ] } },
{ "type": "Feature", "properties": { "nombre": "Biblioteca Municipal Adeje - Miraverde", "actividad_tipo": "biblioteca ludoteca", "municipio": "Adeje", "calle": "Drago", "numero": "1", "web": "www.adeje.es/esp/258_red_de_bibliotecas.asp", "direccion_completa": "Drago, 1", "grupo_edu": "Cultura", "peso_inicial": 4.0 }, "geometry": { "type": "Point", "coordinates": [ -16.72907087, 28.09471287 ] } },
{ "type": "Feature", "properties": { "nombre": "Biblioteca Municipal Adeje - Tijoco La Hoya", "actividad_tipo": "biblioteca ludoteca", "municipio": "Adeje", "calle": "La Milagrosa", "numero": "1", "web": "www.adeje.es/esp/258_red_de_bibliotecas.asp", "direccion_completa": "La Milagrosa, 1", "grupo_edu": "Cultura", "peso_inicial": 4.0 }, "geometry": { "type": "Point", "coordinates": [ -16.76791507, 28.15618016 ] } },
{ "type": "Feature", "properties": { "nombre": "Biblioteca Municipal Adeje - Villa de Adeje", "actividad_tipo": "biblioteca ludoteca", "municipio": "Adeje", "calle": "Universidad La Laguna", "numero": "14", "web": "www.adeje.es/esp/258_red_de_bibliotecas.asp", "direccion_completa": "Universidad La Laguna, 14", "grupo_edu": "Cultura", "peso_inicial": 4.0 }, "geometry": { "type": "Point", "coordinates": [ -16.72500004, 28.12268845 ] } },
{ "type": "Feature", "properties": { "nombre": "Biblioteca Municipal Arafo", "actividad_tipo": "biblioteca ludoteca", "municipio": "Arafo", "calle": "Rafael Clavijo Garcia", "numero": "12", "web": "www.arafo.es", "direccion_completa": "Rafael Clavijo Garcia, 12", "grupo_edu": "Cultura", "peso_inicial": 4.0 }, "geometry": { "type": "Point", "coordinates": [ -16.41812941, 28.34135266 ] } },
{ "type": "Feature", "properties": { "nombre": "Biblioteca Municipal Arico - Arico Viejo", "actividad_tipo": "biblioteca ludoteca", "municipio": "Arico", "calle": "La Cruz", "numero": "2", "web": null, "direccion_completa": "La Cruz, 2", "grupo_edu": "Cultura", "peso_inicial": 4.0 }, "geometry": { "type": "Point", "coordinates": [ -16.47840678, 28.18214042 ] } },
{ "type": "Feature", "properties": { "nombre": "Biblioteca Municipal Arico - El Rio", "actividad_tipo": "biblioteca ludoteca", "municipio": "Arico", "calle": "El Boche", "numero": "3", "web": null, "direccion_completa": "El Boche, 3", "grupo_edu": "Cultura", "peso_inicial": 4.0 }, "geometry": { "type": "Point", "coordinates": [ -16.52224485, 28.14245003 ] } },
{ "type": "Feature", "properties": { "nombre": "Biblioteca Municipal Arico - La Sabinita", "actividad_tipo": "biblioteca ludoteca", "municipio": "Arico", "calle": "El Castillo", "numero": "6", "web": null, "direccion_completa": "El Castillo, 6", "grupo_edu": "Cultura", "peso_inicial": 4.0 }, "geometry": { "type": "Point", "coordinates": [ -16.49483255, 28.18099439 ] } },
{ "type": "Feature", "properties": { "nombre": "Biblioteca Municipal Arico - Villa de Arico", "actividad_tipo": "biblioteca ludoteca", "municipio": "Arico", "calle": "El Carmen", "numero": "33", "web": null, "direccion_completa": "El Carmen, 33", "grupo_edu": "Cultura", "peso_inicial": 4.0 }, "geometry": { "type": "Point", "coordinates": [ -16.49998812, 28.16452876 ] } },
{ "type": "Feature", "properties": { "nombre": "Biblioteca Municipal Arona", "actividad_tipo": "biblioteca ludoteca", "municipio": "Arona", "calle": "El Calvario", "numero": "6", "web": "www.arona.org", "direccion_completa": "El Calvario, 6", "grupo_edu": "Cultura", "peso_inicial": 4.0 }, "geometry": { "type": "Point", "coordinates": [ -16.68023811, 28.10045595 ] } },
{ "type": "Feature", "properties": { "nombre": "Biblioteca Municipal Arona - Buzanada", "actividad_tipo": "biblioteca ludoteca", "municipio": "Arona", "calle": "La Iglesia", "numero": "1", "web": "www.arona.org", "direccion_completa": "La Iglesia, 1", "grupo_edu": "Cultura", "peso_inicial": 4.0 }, "geometry": { "type": "Point", "coordinates": [ -16.65385936, 28.07274762 ] } },
{ "type": "Feature", "properties": { "nombre": "Biblioteca Municipal Arona - Cabo Blanco", "actividad_tipo": "biblioteca ludoteca", "municipio": "Arona", "calle": "Vista Martin", "numero": "8", "web": "www.arona.org", "direccion_completa": "Vista Martin, 8", "grupo_edu": "Cultura", "peso_inicial": 4.0 }, "geometry": { "type": "Point", "coordinates": [ -16.67065168, 28.07364987 ] } },
{ "type": "Feature", "properties": { "nombre": "Biblioteca Municipal Arona - El Fraile", "actividad_tipo": "biblioteca ludoteca", "municipio": "Arona", "calle": "San Sebastian de La Gomera", "numero": "80", "web": "www.arona.org", "direccion_completa": "San Sebastian de La Gomera, 80", "grupo_edu": "Cultura", "peso_inicial": 4.0 }, "geometry": { "type": "Point", "coordinates": [ -16.67111311, 28.012562 ] } },
{ "type": "Feature", "properties": { "nombre": "Biblioteca Municipal Arona - La Camella", "actividad_tipo": "biblioteca ludoteca", "municipio": "Arona", "calle": "General TF 28 Sur", "numero": "58", "web": "www.arona.org", "direccion_completa": "General TF 28 Sur, 58", "grupo_edu": "Cultura", "peso_inicial": 4.0 }, "geometry": { "type": "Point", "coordinates": [ -16.68232592, 28.07869815 ] } },
{ "type": "Feature", "properties": { "nombre": "Biblioteca Municipal Arona - Las Galletas", "actividad_tipo": "biblioteca ludoteca", "municipio": "Arona", "calle": "Dionisio Gonzalez", "numero": "20", "web": "www.arona.org", "direccion_completa": "Dionisio Gonzalez, 20", "grupo_edu": "Cultura", "peso_inicial": 4.0 }, "geometry": { "type": "Point", "coordinates": [ -16.65750553, 28.00756949 ] } },
{ "type": "Feature", "properties": { "nombre": "Biblioteca Municipal Arona - Los Cristianos", "actividad_tipo": "biblioteca ludoteca", "municipio": "Arona", "calle": "Pescador", "numero": "1", "web": "www.arona.org", "direccion_completa": "Pescador, 1", "grupo_edu": "Cultura", "peso_inicial": 4.0 }, "geometry": { "type": "Point", "coordinates": [ -16.71372075, 28.05281137 ] } },
{ "type": "Feature", "properties": { "nombre": "Biblioteca Municipal Arona - Parque La Reina", "actividad_tipo": "biblioteca ludoteca", "municipio": "Arona", "calle": "Petalo", "numero": "1", "web": "www.arona.org", "direccion_completa": "Petalo, 1", "grupo_edu": "Cultura", "peso_inicial": 4.0 }, "geometry": { "type": "Point", "coordinates": [ -16.66286385, 28.04913566 ] } },
{ "type": "Feature", "properties": { "nombre": "Biblioteca Municipal Arona - Valle de San Lorenzo", "actividad_tipo": "biblioteca ludoteca", "municipio": "Arona", "calle": "Llano Mora", "numero": "4", "web": "www.arona.org", "direccion_completa": "Llano Mora, 4", "grupo_edu": "Cultura", "peso_inicial": 4.0 }, "geometry": { "type": "Point", "coordinates": [ -16.65766684, 28.09084986 ] } },
{ "type": "Feature", "properties": { "nombre": "Biblioteca Municipal Buenavista del Norte", "actividad_tipo": "biblioteca ludoteca", "municipio": "Buenavista del Norte", "calle": "Los Remedios", "numero": "9", "web": "www.buenavistadelnorte.com", "direccion_completa": "Los Remedios, 9", "grupo_edu": "Cultura", "peso_inicial": 4.0 }, "geometry": { "type": "Point", "coordinates": [ -16.85160624, 28.37236844 ] } },
{ "type": "Feature", "properties": { "nombre": "Biblioteca Municipal Candelaria", "actividad_tipo": "biblioteca ludoteca", "municipio": "Candelaria", "calle": "Alcalde Juan Castellano Castellano", "numero": "9", "web": "www.candelaria.es", "direccion_completa": "Alcalde Juan Castellano Castellano, 9", "grupo_edu": "Cultura", "peso_inicial": 4.0 }, "geometry": { "type": "Point", "coordinates": [ -16.37040309, 28.35599485 ] } },
{ "type": "Feature", "properties": { "nombre": "Biblioteca Municipal Candelaria - Araya", "actividad_tipo": "biblioteca ludoteca", "municipio": "Candelaria", "calle": "Simon Higuera Mederos", "numero": "2", "web": "www.candelaria.es", "direccion_completa": "Simon Higuera Mederos, 2", "grupo_edu": "Cultura", "peso_inicial": 4.0 }, "geometry": { "type": "Point", "coordinates": [ -16.39438668, 28.36322126 ] } },
{ "type": "Feature", "properties": { "nombre": "Biblioteca Municipal Candelaria - Barranco Hondo", "actividad_tipo": "biblioteca ludoteca", "municipio": "Candelaria", "calle": "La Plaza", "numero": "3", "web": null, "direccion_completa": "La Plaza, 3", "grupo_edu": "Cultura", "peso_inicial": 4.0 }, "geometry": { "type": "Point", "coordinates": [ -16.36116763, 28.40173631 ] } },
{ "type": "Feature", "properties": { "nombre": "Biblioteca Municipal Candelaria - Igueste", "actividad_tipo": "biblioteca ludoteca", "municipio": "Candelaria", "calle": "El Pico", "numero": "1", "web": "www.candelaria.es", "direccion_completa": "El Pico, 1", "grupo_edu": "Cultura", "peso_inicial": 4.0 }, "geometry": { "type": "Point", "coordinates": [ -16.37525901, 28.38273073 ] } },
{ "type": "Feature", "properties": { "nombre": "Biblioteca Municipal Candelaria - Las Caletillas", "actividad_tipo": "biblioteca ludoteca", "municipio": "Candelaria", "calle": "Maritima", "numero": "26", "web": "www.candelaria.es", "direccion_completa": "Maritima, 26", "grupo_edu": "Cultura", "peso_inicial": 4.0 }, "geometry": { "type": "Point", "coordinates": [ -16.36194348, 28.37638994 ] } },
{ "type": "Feature", "properties": { "nombre": "Biblioteca Municipal Candelaria - Las Cuevecitas", "actividad_tipo": "biblioteca ludoteca", "municipio": "Candelaria", "calle": "San Andres", "numero": "2", "web": "www.candelaria.es", "direccion_completa": "San Andres, 2", "grupo_edu": "Cultura", "peso_inicial": 4.0 }, "geometry": { "type": "Point", "coordinates": [ -16.39896656, 28.35822113 ] } },
{ "type": "Feature", "properties": { "nombre": "Biblioteca Municipal Candelaria - Malpais", "actividad_tipo": "biblioteca ludoteca", "municipio": "Candelaria", "calle": "Los Cuchillos", "numero": "99", "web": "www.candelaria.es", "direccion_completa": "Los Cuchillos, 99", "grupo_edu": "Cultura", "peso_inicial": 4.0 }, "geometry": { "type": "Point", "coordinates": [ -16.40206078, 28.3532623 ] } },
{ "type": "Feature", "properties": { "nombre": "Biblioteca Municipal Candelaria - Punta Larga", "actividad_tipo": "biblioteca ludoteca", "municipio": "Candelaria", "calle": "Maritima", "numero": "29", "web": "www.candelaria.es", "direccion_completa": "Maritima, 29", "grupo_edu": "Cultura", "peso_inicial": 4.0 }, "geometry": { "type": "Point", "coordinates": [ -16.36521792, 28.36437428 ] } },
{ "type": "Feature", "properties": { "nombre": "Biblioteca Municipal El Rosario - La Esperanza", "actividad_tipo": "biblioteca ludoteca", "municipio": "El Rosario", "calle": "Amilcar Gonzalez Diaz", "numero": "4", "web": "www.ayuntamientoelrosario.org", "direccion_completa": "Amilcar Gonzalez Diaz, 4", "grupo_edu": "Cultura", "peso_inicial": 4.0 }, "geometry": { "type": "Point", "coordinates": [ -16.36678223, 28.4507591 ] } },
{ "type": "Feature", "properties": { "nombre": "Biblioteca Municipal El Rosario - Tabaiba", "actividad_tipo": "biblioteca ludoteca", "municipio": "El Rosario", "calle": "España", "numero": "15", "web": "www.bibliotecaytelecentrotabaiba.blogspot.com.es", "direccion_completa": "España, 15", "grupo_edu": "Cultura", "peso_inicial": 4.0 }, "geometry": { "type": "Point", "coordinates": [ -16.33344059, 28.40380346 ] } },
{ "type": "Feature", "properties": { "nombre": "Biblioteca Municipal El Sauzal", "actividad_tipo": "biblioteca ludoteca", "municipio": "El Sauzal", "calle": "Manuel Nepomuceno", "numero": "12", "web": "www.elsauzal.es", "direccion_completa": "Manuel Nepomuceno, 12", "grupo_edu": "Cultura", "peso_inicial": 4.0 }, "geometry": { "type": "Point", "coordinates": [ -16.43618037, 28.47837059 ] } },
{ "type": "Feature", "properties": { "nombre": "Biblioteca Municipal El Sauzal - Ravelo", "actividad_tipo": "biblioteca ludoteca", "municipio": "El Sauzal", "calle": "Sabino Berthelot", "numero": "31", "web": "www.elsauzal.es", "direccion_completa": "Sabino Berthelot, 31", "grupo_edu": "Cultura", "peso_inicial": 4.0 }, "geometry": { "type": "Point", "coordinates": [ -16.42094038, 28.4597719 ] } },
{ "type": "Feature", "properties": { "nombre": "Biblioteca Municipal El Tanque", "actividad_tipo": "biblioteca ludoteca", "municipio": "El Tanque", "calle": "Miguel de Cervantes", "numero": "15", "web": "www.eltanque.es", "direccion_completa": "Miguel de Cervantes, 15", "grupo_edu": "Cultura", "peso_inicial": 4.0 }, "geometry": { "type": "Point", "coordinates": [ -16.77478722, 28.35569098 ] } },
{ "type": "Feature", "properties": { "nombre": "Biblioteca Municipal Fasnia", "actividad_tipo": "biblioteca ludoteca", "municipio": "Fasnia", "calle": "General TF 620 Los Roques", "numero": "8", "web": "www.ayuntamientodefasnia.es", "direccion_completa": "General TF 620 Los Roques, 8", "grupo_edu": "Cultura", "peso_inicial": 4.0 }, "geometry": { "type": "Point", "coordinates": [ -16.44129379, 28.23621281 ] } },
{ "type": "Feature", "properties": { "nombre": "Biblioteca Municipal Fasnia - La Zarza", "actividad_tipo": "biblioteca ludoteca", "municipio": "Fasnia", "calle": "El Calvario", "numero": "3", "web": "www.ayuntamientodefasnia.es", "direccion_completa": "El Calvario, 3", "grupo_edu": "Cultura", "peso_inicial": 4.0 }, "geometry": { "type": "Point", "coordinates": [ -16.45546793, 28.23614667 ] } },
{ "type": "Feature", "properties": { "nombre": "Biblioteca Municipal Garachico", "actividad_tipo": "biblioteca ludoteca", "municipio": "Garachico", "calle": "La Libertad", "numero": "1", "web": "www.garachico.es", "direccion_completa": "La Libertad, 1", "grupo_edu": "Cultura", "peso_inicial": 4.0 }, "geometry": { "type": "Point", "coordinates": [ -16.76438381, 28.3729215 ] } },
{ "type": "Feature", "properties": { "nombre": "Biblioteca Municipal Garachico - Genoves", "actividad_tipo": "biblioteca ludoteca", "municipio": "Garachico", "calle": "El Pino", "numero": "2", "web": "www.garachico.es", "direccion_completa": "El Pino, 2", "grupo_edu": "Cultura", "peso_inicial": 4.0 }, "geometry": { "type": "Point", "coordinates": [ -16.74417606, 28.36585134 ] } },
{ "type": "Feature", "properties": { "nombre": "Biblioteca Municipal Granadilla de Abona", "actividad_tipo": "biblioteca ludoteca", "municipio": "Granadilla de Abona", "calle": "Gonzalez Mena", "numero": "3", "web": null, "direccion_completa": "Gonzalez Mena, 3", "grupo_edu": "Cultura", "peso_inicial": 4.0 }, "geometry": { "type": "Point", "coordinates": [ -16.57716154, 28.1225327 ] } },
{ "type": "Feature", "properties": { "nombre": "Biblioteca Municipal Guia de Isora", "actividad_tipo": "biblioteca ludoteca", "municipio": "Guía de Isora", "calle": "El Campo", "numero": "13", "web": "www.guiadeisora.org", "direccion_completa": "El Campo, 13", "grupo_edu": "Cultura", "peso_inicial": 4.0 }, "geometry": { "type": "Point", "coordinates": [ -16.78043178, 28.21215722 ] } },
{ "type": "Feature", "properties": { "nombre": "Biblioteca Municipal Guimar", "actividad_tipo": "biblioteca ludoteca", "municipio": "Güimar", "calle": "Poeta Aristides Hernandez Mora", "numero": "16", "web": null, "direccion_completa": "Poeta Aristides Hernandez Mora, 16", "grupo_edu": "Cultura", "peso_inicial": 4.0 }, "geometry": { "type": "Point", "coordinates": [ -16.40579349, 28.31659962 ] } },
{ "type": "Feature", "properties": { "nombre": "Biblioteca Municipal Icod de los Vinos", "actividad_tipo": "biblioteca ludoteca", "municipio": "Icod de los Vinos", "calle": "San Francisco", "numero": "2", "web": null, "direccion_completa": "San Francisco, 2", "grupo_edu": "Cultura", "peso_inicial": 4.0 }, "geometry": { "type": "Point", "coordinates": [ -16.71962705, 28.36648141 ] } },
{ "type": "Feature", "properties": { "nombre": "Biblioteca Municipal Icod de los Vinos - Sala Lectura El Amparo", "actividad_tipo": "biblioteca ludoteca", "municipio": "Icod de los Vinos", "calle": "General TF 366 El Amparo", "numero": "11", "web": null, "direccion_completa": "General TF 366 El Amparo, 11", "grupo_edu": "Cultura", "peso_inicial": 4.0 }, "geometry": { "type": "Point", "coordinates": [ -16.71600278, 28.35506265 ] } },
{ "type": "Feature", "properties": { "nombre": "Biblioteca Municipal Icod de los Vinos - Santa Barbara", "actividad_tipo": "biblioteca ludoteca", "municipio": "Icod de los Vinos", "calle": "Perez Rijo", "numero": "14", "web": null, "direccion_completa": "Perez Rijo, 14", "grupo_edu": "Cultura", "peso_inicial": 4.0 }, "geometry": { "type": "Point", "coordinates": [ -16.69025318, 28.37171607 ] } },
{ "type": "Feature", "properties": { "nombre": "Biblioteca Municipal La Guancha", "actividad_tipo": "biblioteca ludoteca", "municipio": "La Guancha", "calle": "Cristobal Barrios Rodriguez", "numero": "5", "web": "biblioguancha.blogspot.com", "direccion_completa": "Cristobal Barrios Rodriguez, 5", "grupo_edu": "Cultura", "peso_inicial": 4.0 }, "geometry": { "type": "Point", "coordinates": [ -16.65134591, 28.3772374 ] } },
{ "type": "Feature", "properties": { "nombre": "Biblioteca Municipal La Guancha - Santa Catalina", "actividad_tipo": "biblioteca ludoteca", "municipio": "La Guancha", "calle": "Los Escolares", "numero": "2", "web": "biblioguancha.blogspot.com", "direccion_completa": "Los Escolares, 2", "grupo_edu": "Cultura", "peso_inicial": 4.0 }, "geometry": { "type": "Point", "coordinates": [ -16.65666348, 28.39162636 ] } },
{ "type": "Feature", "properties": { "nombre": "Biblioteca Municipal La Guancha - Santo Domingo", "actividad_tipo": "biblioteca ludoteca", "municipio": "La Guancha", "calle": "La Iglesia Peatonal", "numero": "1", "web": "biblioguancha.blogspot.com", "direccion_completa": "La Iglesia Peatonal, 1", "grupo_edu": "Cultura", "peso_inicial": 4.0 }, "geometry": { "type": "Point", "coordinates": [ -16.6726907, 28.39066664 ] } },
{ "type": "Feature", "properties": { "nombre": "Biblioteca Municipal La Laguna - Adrian Aleman", "actividad_tipo": "biblioteca ludoteca", "municipio": "La Laguna", "calle": "Juan de Vera", "numero": "9", "web": "www.bibliotecapublicas.es/lalaguna.com", "direccion_completa": "Juan de Vera, 9", "grupo_edu": "Cultura", "peso_inicial": 4.0 }, "geometry": { "type": "Point", "coordinates": [ -16.31649695, 28.49027181 ] } },
{ "type": "Feature", "properties": { "nombre": "Biblioteca Municipal La Laguna - Tejina", "actividad_tipo": "biblioteca ludoteca", "municipio": "La Laguna", "calle": "La Palmita", "numero": "4", "web": "www.bibliotecapublicas.es/lalaguna.com", "direccion_completa": "La Palmita, 4", "grupo_edu": "Cultura", "peso_inicial": 4.0 }, "geometry": { "type": "Point", "coordinates": [ -16.36526654, 28.53437399 ] } },
{ "type": "Feature", "properties": { "nombre": "Biblioteca Municipal La Matanza de Acentejo", "actividad_tipo": "biblioteca ludoteca", "municipio": "La Matanza", "calle": "Tinguaro", "numero": "20", "web": "www.matanceros.com", "direccion_completa": "Tinguaro, 20", "grupo_edu": "Cultura", "peso_inicial": 4.0 }, "geometry": { "type": "Point", "coordinates": [ -16.45669206, 28.44808322 ] } },
{ "type": "Feature", "properties": { "nombre": "Biblioteca Municipal La Orotava", "actividad_tipo": "biblioteca ludoteca", "municipio": "La Orotava", "calle": "Tomas Perez", "numero": "3", "web": "www.facebook.com/BibliotecaOrotava", "direccion_completa": "Tomas Perez, 3", "grupo_edu": "Cultura", "peso_inicial": 4.0 }, "geometry": { "type": "Point", "coordinates": [ -16.52452792, 28.38930444 ] } },
{ "type": "Feature", "properties": { "nombre": "Biblioteca Municipal La Victoria de Acentejo", "actividad_tipo": "biblioteca ludoteca", "municipio": "La Victoria", "calle": "Añate", "numero": "1", "web": "www.lavictoriadeacentejo.es", "direccion_completa": "Añate, 1", "grupo_edu": "Cultura", "peso_inicial": 4.0 }, "geometry": { "type": "Point", "coordinates": [ -16.47187835, 28.4331071 ] } },
{ "type": "Feature", "properties": { "nombre": "Biblioteca Municipal Los Realejos", "actividad_tipo": "biblioteca ludoteca", "municipio": "Los Realejos", "calle": "La Union", "numero": "1", "web": null, "direccion_completa": "La Union, 1", "grupo_edu": "Cultura", "peso_inicial": 4.0 }, "geometry": { "type": "Point", "coordinates": [ -16.58618854, 28.38662349 ] } },
{ "type": "Feature", "properties": { "nombre": "Biblioteca Municipal Los Silos", "actividad_tipo": "biblioteca ludoteca", "municipio": "Los Silos", "calle": "Monseñor Agustin Yanes Valer", "numero": "2", "web": "www.lossilos.es", "direccion_completa": "Monseñor Agustin Yanes Valer, 2", "grupo_edu": "Cultura", "peso_inicial": 4.0 }, "geometry": { "type": "Point", "coordinates": [ -16.81718638, 28.36513545 ] } },
{ "type": "Feature", "properties": { "nombre": "Biblioteca Municipal Puerto de la Cruz", "actividad_tipo": "biblioteca ludoteca", "municipio": "Puerto de la Cruz", "calle": "Puerto Viejo", "numero": "11", "web": "www.bibliotecaspublicas.es/puertodelacruz", "direccion_completa": "Puerto Viejo, 11", "grupo_edu": "Cultura", "peso_inicial": 4.0 }, "geometry": { "type": "Point", "coordinates": [ -16.55201276, 28.41593538 ] } },
{ "type": "Feature", "properties": { "nombre": "Biblioteca Municipal San Juan de la Rambla", "actividad_tipo": "biblioteca ludoteca", "municipio": "San Juan de la Rambla", "calle": "La Vera Baja", "numero": "2", "web": null, "direccion_completa": "La Vera Baja, 2", "grupo_edu": "Cultura", "peso_inicial": 4.0 }, "geometry": { "type": "Point", "coordinates": [ -16.64081337, 28.38013739 ] } },
{ "type": "Feature", "properties": { "nombre": "Biblioteca Municipal San Miguel de Abona", "actividad_tipo": "biblioteca ludoteca", "municipio": "San Miguel", "calle": "La Iglesia", "numero": "13", "web": null, "direccion_completa": "La Iglesia, 13", "grupo_edu": "Cultura", "peso_inicial": 4.0 }, "geometry": { "type": "Point", "coordinates": [ -16.61782283, 28.09783206 ] } },
{ "type": "Feature", "properties": { "nombre": "Biblioteca Municipal Santa Cruz Tenerife - Federico Garcia Lorca - Ofra", "actividad_tipo": "biblioteca ludoteca", "municipio": "Santa Cruz de Tenerife", "calle": "Principes de España", "numero": "6", "web": "www.bibliotecaspublicas.es/santacruztenerife", "direccion_completa": "Principes de España, 6", "grupo_edu": "Cultura", "peso_inicial": 4.0 }, "geometry": { "type": "Point", "coordinates": [ -16.28428112, 28.4557116 ] } },
{ "type": "Feature", "properties": { "nombre": "Biblioteca Municipal Santa Cruz Tenerife - TEA Central", "actividad_tipo": "biblioteca ludoteca", "municipio": "Santa Cruz de Tenerife", "calle": "San Sebastian", "numero": "8", "web": null, "direccion_completa": "San Sebastian, 8", "grupo_edu": "Cultura", "peso_inicial": 4.0 }, "geometry": { "type": "Point", "coordinates": [ -16.25077997, 28.46387429 ] } },
{ "type": "Feature", "properties": { "nombre": "Biblioteca Municipal Santa Cruz Tenerife Jose Saramago Añaza", "actividad_tipo": "biblioteca ludoteca", "municipio": "Santa Cruz de Tenerife", "calle": "Añaza", "numero": "11", "web": "www.bibliotecaspublicas.es/santacruztenerife", "direccion_completa": "Añaza, 11", "grupo_edu": "Cultura", "peso_inicial": 4.0 }, "geometry": { "type": "Point", "coordinates": [ -16.30047868, 28.42271124 ] } },
{ "type": "Feature", "properties": { "nombre": "Biblioteca Municipal Santa Ursula", "actividad_tipo": "biblioteca ludoteca", "municipio": "Santa Úrsula", "calle": "Alcalde Alejo Perez", "numero": "1", "web": "www.santaursula.es", "direccion_completa": "Alcalde Alejo Perez, 1", "grupo_edu": "Cultura", "peso_inicial": 4.0 }, "geometry": { "type": "Point", "coordinates": [ -16.49023603, 28.42591831 ] } },
{ "type": "Feature", "properties": { "nombre": "Biblioteca Municipal Santa Ursula - La Corujera", "actividad_tipo": "biblioteca ludoteca", "municipio": "Santa Úrsula", "calle": "Guanches", "numero": "76", "web": "www.santaursula.es", "direccion_completa": "Guanches, 76", "grupo_edu": "Cultura", "peso_inicial": 4.0 }, "geometry": { "type": "Point", "coordinates": [ -16.49294346, 28.41536074 ] } },
{ "type": "Feature", "properties": { "nombre": "Biblioteca Municipal Santiago del Teide", "actividad_tipo": "biblioteca ludoteca", "municipio": "Santiago del Teide", "calle": "Juan Cabeza", "numero": "1", "web": null, "direccion_completa": "Juan Cabeza, 1", "grupo_edu": "Cultura", "peso_inicial": 4.0 }, "geometry": { "type": "Point", "coordinates": [ -16.81548603, 28.29759516 ] } },
{ "type": "Feature", "properties": { "nombre": "Biblioteca Municipal Santiago del Teide - Puerto de Santiago", "actividad_tipo": "biblioteca ludoteca", "municipio": "Santiago del Teide", "calle": "Quinto Centenario", "numero": "58", "web": null, "direccion_completa": "Quinto Centenario, 58", "grupo_edu": "Cultura", "peso_inicial": 4.0 }, "geometry": { "type": "Point", "coordinates": [ -16.84111855, 28.23887727 ] } },
{ "type": "Feature", "properties": { "nombre": "Biblioteca Municipal Santiago del Teide - Tamaimo", "actividad_tipo": "biblioteca ludoteca", "municipio": "Santiago del Teide", "calle": "Coronel Gorrin", "numero": "28", "web": null, "direccion_completa": "Coronel Gorrin, 28", "grupo_edu": "Cultura", "peso_inicial": 4.0 }, "geometry": { "type": "Point", "coordinates": [ -16.8187959, 28.2688585 ] } },
{ "type": "Feature", "properties": { "nombre": "Biblioteca Municipal Tacoronte", "actividad_tipo": "biblioteca ludoteca", "municipio": "Tacoronte", "calle": "Juez Jorge Garcia Gonzalez", "numero": "2", "web": "www.tacoronte.es", "direccion_completa": "Juez Jorge Garcia Gonzalez, 2", "grupo_edu": "Cultura", "peso_inicial": 4.0 }, "geometry": { "type": "Point", "coordinates": [ -16.41282362, 28.48089943 ] } },
{ "type": "Feature", "properties": { "nombre": "Biblioteca Municipal Tacoronte - Aguagarcia", "actividad_tipo": "biblioteca ludoteca", "municipio": "Tacoronte", "calle": "Real TF 237", "numero": "122", "web": "www.tacoronte.es", "direccion_completa": "Real TF 237, 122", "grupo_edu": "Cultura", "peso_inicial": 4.0 }, "geometry": { "type": "Point", "coordinates": [ -16.4032242, 28.46741053 ] } },
{ "type": "Feature", "properties": { "nombre": "Biblioteca Municipal Tacoronte - Maximiliano Gil Melian", "actividad_tipo": "biblioteca ludoteca", "municipio": "Tacoronte", "calle": "Gomez", "numero": "16", "web": "www.tacoronte.es", "direccion_completa": "Gomez, 16", "grupo_edu": "Cultura", "peso_inicial": 4.0 }, "geometry": { "type": "Point", "coordinates": [ -16.39824868, 28.4909167 ] } },
{ "type": "Feature", "properties": { "nombre": "Biblioteca Municipal Tegueste", "actividad_tipo": "biblioteca ludoteca", "municipio": "Tegueste", "calle": "El Casino", "numero": "7", "web": null, "direccion_completa": "El Casino, 7", "grupo_edu": "Cultura", "peso_inicial": 4.0 }, "geometry": { "type": "Point", "coordinates": [ -16.33762017, 28.52293033 ] } },
{ "type": "Feature", "properties": { "nombre": "Biblioteca Municipal Tegueste - El Socorro", "actividad_tipo": "biblioteca ludoteca", "municipio": "Tegueste", "calle": "Los Cipreses", "numero": "2", "web": "www.tegueste.es", "direccion_completa": "Los Cipreses, 2", "grupo_edu": "Cultura", "peso_inicial": 4.0 }, "geometry": { "type": "Point", "coordinates": [ -16.36184076, 28.5158844 ] } },
{ "type": "Feature", "properties": { "nombre": "Biblioteca Municipal Tegueste - Pedro Alvarez", "actividad_tipo": "biblioteca ludoteca", "municipio": "Tegueste", "calle": "Patronato Parroquial", "numero": "1", "web": "www.tegueste.es", "direccion_completa": "Patronato Parroquial, 1", "grupo_edu": "Cultura", "peso_inicial": 4.0 }, "geometry": { "type": "Point", "coordinates": [ -16.31654658, 28.52046165 ] } },
{ "type": "Feature", "properties": { "nombre": "Biblioteca Municipal Vilaflor de Chasna", "actividad_tipo": "biblioteca ludoteca", "municipio": "Vilaflor", "calle": "El Calvario", "numero": "2", "web": "www.vilaflordechasna.es", "direccion_completa": "El Calvario, 2", "grupo_edu": "Cultura", "peso_inicial": 4.0 }, "geometry": { "type": "Point", "coordinates": [ -16.63755405, 28.15560774 ] } },
{ "type": "Feature", "properties": { "nombre": "Biblioteca Parque Nacional del Teide", "actividad_tipo": "biblioteca ludoteca", "municipio": "La Orotava", "calle": "Doctor Sixto Perera Gonzalez", "numero": "25", "web": null, "direccion_completa": "Doctor Sixto Perera Gonzalez, 25", "grupo_edu": "Cultura", "peso_inicial": 4.0 }, "geometry": { "type": "Point", "coordinates": [ -16.52723638, 28.39231203 ] } },
{ "type": "Feature", "properties": { "nombre": "Biblioteca Publica", "actividad_tipo": "biblioteca ludoteca", "municipio": "Buenavista del Norte", "calle": "General Eulate", "numero": "1", "web": null, "direccion_completa": "General Eulate, 1", "grupo_edu": "Cultura", "peso_inicial": 4.0 }, "geometry": { "type": "Point", "coordinates": [ -16.84579633, 28.32925205 ] } },
{ "type": "Feature", "properties": { "nombre": "Biblioteca Publica de Garachico", "actividad_tipo": "biblioteca ludoteca", "municipio": "Garachico", "calle": "De la Libertad", "numero": "1", "web": null, "direccion_completa": "De la Libertad, 1", "grupo_edu": "Cultura", "peso_inicial": 4.0 }, "geometry": { "type": "Point", "coordinates": [ -16.76395958, 28.37283038 ] } },
{ "type": "Feature", "properties": { "nombre": "Biblioteca Publica del Estado", "actividad_tipo": "biblioteca ludoteca", "municipio": "Santa Cruz de Tenerife", "calle": "Comodoro Rolin", "numero": "1", "web": null, "direccion_completa": "Comodoro Rolin, 1", "grupo_edu": "Cultura", "peso_inicial": 4.0 }, "geometry": { "type": "Point", "coordinates": [ -16.26603579, 28.46445964 ] } },
{ "type": "Feature", "properties": { "nombre": "Biblipoteca Municipal Granadilla de Abona San Isidro", "actividad_tipo": "biblioteca ludoteca", "municipio": "Granadilla de Abona", "calle": "Santa Maria de la Cabeza", "numero": "3", "web": "www.granadilladeabona.org/centros/biblioteca-publica-municipal-san-isidro", "direccion_completa": "Santa Maria de la Cabeza, 3", "grupo_edu": "Cultura", "peso_inicial": 4.0 }, "geometry": { "type": "Point", "coordinates": [ -16.55848863, 28.07763346 ] } },
{ "type": "Feature", "properties": { "nombre": "Big Ben College", "actividad_tipo": "enseñanza idiomas", "municipio": "Los Realejos", "calle": "La Atlantida", "numero": "3", "web": "www.bigbencollege.com", "direccion_completa": "La Atlantida, 3", "grupo_edu": "Formacion", "peso_inicial": 6.0 }, "geometry": { "type": "Point", "coordinates": [ -16.58448344, 28.38073288 ] } },
{ "type": "Feature", "properties": { "nombre": "Big Ben College", "actividad_tipo": "enseñanza idiomas", "municipio": "Los Realejos", "calle": "Canarias", "numero": "25", "web": "www.bigbencollege.com", "direccion_completa": "Canarias, 25", "grupo_edu": "Formacion", "peso_inicial": 6.0 }, "geometry": { "type": "Point", "coordinates": [ -16.58428149, 28.38228711 ] } },
{ "type": "Feature", "properties": { "nombre": "Bla Tenerife", "actividad_tipo": "enseñanza idiomas", "municipio": "Granadilla de Abona", "calle": "Galicia", "numero": "2", "web": "www.bla-tenerife.com", "direccion_completa": "Galicia, 2", "grupo_edu": "Formacion", "peso_inicial": 6.0 }, "geometry": { "type": "Point", "coordinates": [ -16.536193, 28.04684951 ] } },
{ "type": "Feature", "properties": { "nombre": "British School Tenerife", "actividad_tipo": "enseñanza secundaria", "municipio": "Los Realejos", "calle": "Montijo", "numero": "16", "web": "www.britishschooltenerife.com", "direccion_completa": "Montijo, 16", "grupo_edu": "Colegio", "peso_inicial": 10.0 }, "geometry": { "type": "Point", "coordinates": [ -16.58120444, 28.38826822 ] } },
{ "type": "Feature", "properties": { "nombre": "Bubble Park ", "actividad_tipo": "guarderias centros infantiles", "municipio": "Santa Úrsula", "calle": "Provincial ", "numero": "59", "web": null, "direccion_completa": "Provincial , 59", "grupo_edu": "Colegio", "peso_inicial": 10.0 }, "geometry": { "type": "Point", "coordinates": [ -16.49617486, 28.42463015 ] } },
{ "type": "Feature", "properties": { "nombre": "Buckingham Academy", "actividad_tipo": "enseñanza especializada", "municipio": "Tegueste", "calle": "Los Gofiones", "numero": "1", "web": null, "direccion_completa": "Los Gofiones, 1", "grupo_edu": "Formacion", "peso_inicial": 6.0 }, "geometry": { "type": "Point", "coordinates": [ -16.344336, 28.52275999 ] } },
{ "type": "Feature", "properties": { "nombre": "CADGE Internacional Danza Tenerife", "actividad_tipo": "enseñanza especializada", "municipio": "Santa Cruz de Tenerife", "calle": "Los Sueños", "numero": "55", "web": "centrointernacionaldedanzatenerife.es", "direccion_completa": "Los Sueños, 55", "grupo_edu": "Formacion", "peso_inicial": 6.0 }, "geometry": { "type": "Point", "coordinates": [ -16.26288378, 28.46992228 ] } },
{ "type": "Feature", "properties": { "nombre": "CAEPA Radio Ecca", "actividad_tipo": "enseñanza especializada", "municipio": "Santa Cruz de Tenerife", "calle": "Lope de Vega", "numero": "5", "web": "www.radioecca.org", "direccion_completa": "Lope de Vega, 5", "grupo_edu": "Formacion", "peso_inicial": 6.0 }, "geometry": { "type": "Point", "coordinates": [ -16.25908609, 28.46330143 ] } },
{ "type": "Feature", "properties": { "nombre": "CAMGE Decroly", "actividad_tipo": "enseñanza especializada", "municipio": "La Laguna", "calle": "Verde", "numero": "125", "web": "www.colegiodecroly.es", "direccion_completa": "Verde, 125", "grupo_edu": "Formacion", "peso_inicial": 6.0 }, "geometry": { "type": "Point", "coordinates": [ -16.30195861, 28.50777222 ] } },
{ "type": "Feature", "properties": { "nombre": "CAMGE Hispano Ingles", "actividad_tipo": "enseñanza especializada", "municipio": "Santa Cruz de Tenerife", "calle": "Santa Cruz", "numero": "94", "web": "www.colegio-hispano-ingles.es", "direccion_completa": "Santa Cruz, 94", "grupo_edu": "Formacion", "peso_inicial": 6.0 }, "geometry": { "type": "Point", "coordinates": [ -16.25759771, 28.47094141 ] } },
{ "type": "Feature", "properties": { "nombre": "CAMGE Nuryana", "actividad_tipo": "enseñanza especializada", "municipio": "La Laguna", "calle": "San Francisco de Paula TF 265", "numero": "72", "web": "www.e-increscendo.com", "direccion_completa": "San Francisco de Paula TF 265, 72", "grupo_edu": "Formacion", "peso_inicial": 6.0 }, "geometry": { "type": "Point", "coordinates": [ -16.32366165, 28.47914429 ] } },
{ "type": "Feature", "properties": { "nombre": "Casa de La Castaña y de La Alfareria", "actividad_tipo": "centro cultural", "municipio": "La Victoria", "calle": "Añate", "numero": "5", "web": "www.lavictoriadeacentejo.es", "direccion_completa": "Añate, 5", "grupo_edu": "Cultura", "peso_inicial": 4.0 }, "geometry": { "type": "Point", "coordinates": [ -16.4714378, 28.43260925 ] } },
{ "type": "Feature", "properties": { "nombre": "Casa de la Cultura", "actividad_tipo": "centro cultural", "municipio": "Güimar", "calle": "Canarias", "numero": "3", "web": null, "direccion_completa": "Canarias, 3", "grupo_edu": "Cultura", "peso_inicial": 4.0 }, "geometry": { "type": "Point", "coordinates": [ -16.41096769, 28.31443375 ] } },
{ "type": "Feature", "properties": { "nombre": "Casa de la Cultura", "actividad_tipo": "centro cultural", "municipio": "Santa Cruz de Tenerife", "calle": "Comodoro Rolin", "numero": "1", "web": null, "direccion_completa": "Comodoro Rolin, 1", "grupo_edu": "Cultura", "peso_inicial": 4.0 }, "geometry": { "type": "Point", "coordinates": [ -16.26599136, 28.46450847 ] } },
{ "type": "Feature", "properties": { "nombre": "Casa de la Cultura", "actividad_tipo": "centro cultural", "municipio": "Buenavista del Norte", "calle": "El Puerto", "numero": "61", "web": null, "direccion_completa": "El Puerto, 61", "grupo_edu": "Cultura", "peso_inicial": 4.0 }, "geometry": { "type": "Point", "coordinates": [ -16.85286068, 28.37348319 ] } },
{ "type": "Feature", "properties": { "nombre": "Casa de la Cultura Antiguo Convento de San Francisco", "actividad_tipo": "centro cultural", "municipio": "Garachico", "calle": "San Francisco", "numero": "sn", "web": null, "direccion_completa": "San Francisco, sn", "grupo_edu": "Cultura", "peso_inicial": 4.0 }, "geometry": { "type": "Point", "coordinates": [ -16.76396319, 28.37300514 ] } },
{ "type": "Feature", "properties": { "nombre": "Casa de la Cultura Chimiche", "actividad_tipo": "centro cultural", "municipio": "Granadilla de Abona", "calle": "Las Crucitas", "numero": "1", "web": null, "direccion_completa": "Las Crucitas, 1", "grupo_edu": "Cultura", "peso_inicial": 4.0 }, "geometry": { "type": "Point", "coordinates": [ -16.527637, 28.12862329 ] } },
{ "type": "Feature", "properties": { "nombre": "Casa de la Cultura Los Realejos", "actividad_tipo": "centro cultural", "municipio": "Los Realejos", "calle": "Tres de Mayo", "numero": "5", "web": null, "direccion_completa": "Tres de Mayo, 5", "grupo_edu": "Cultura", "peso_inicial": 4.0 }, "geometry": { "type": "Point", "coordinates": [ -16.58497644, 28.38134144 ] } },
{ "type": "Feature", "properties": { "nombre": "Casa de la Juventud", "actividad_tipo": "centro cultural", "municipio": "Los Silos", "calle": "Cementerio", "numero": "1", "web": null, "direccion_completa": "Cementerio, 1", "grupo_edu": "Cultura", "peso_inicial": 4.0 }, "geometry": { "type": "Point", "coordinates": [ -16.82039481, 28.36691069 ] } },
{ "type": "Feature", "properties": { "nombre": "Casa de La Juventud La Vera Alta", "actividad_tipo": "centro cultural", "municipio": "San Juan de la Rambla", "calle": "La Vera", "numero": "1", "web": null, "direccion_completa": "La Vera, 1", "grupo_edu": "Cultura", "peso_inicial": 4.0 }, "geometry": { "type": "Point", "coordinates": [ -16.63577176, 28.38075792 ] } },
{ "type": "Feature", "properties": { "nombre": "Casa de La Juventud y Del Arte", "actividad_tipo": "centro cultural", "municipio": "La Victoria", "calle": "Valerio Jerez", "numero": "13", "web": null, "direccion_completa": "Valerio Jerez, 13", "grupo_edu": "Cultura", "peso_inicial": 4.0 }, "geometry": { "type": "Point", "coordinates": [ -16.47111651, 28.43433881 ] } },
{ "type": "Feature", "properties": { "nombre": "Casa de la Polvora", "actividad_tipo": "museos salas de arte", "municipio": "Santa Cruz de Tenerife", "calle": "Constitucion", "numero": "3", "web": null, "direccion_completa": "Constitucion, 3", "grupo_edu": "Cultura", "peso_inicial": 4.0 }, "geometry": { "type": "Point", "coordinates": [ -16.25413511, 28.45513064 ] } },
{ "type": "Feature", "properties": { "nombre": "Casa de las Artes", "actividad_tipo": "enseñanza especializada", "municipio": "Los Realejos", "calle": "San Agustin", "numero": "7", "web": "www.escuelasartisticas.com", "direccion_completa": "San Agustin, 7", "grupo_edu": "Formacion", "peso_inicial": 6.0 }, "geometry": { "type": "Point", "coordinates": [ -16.58464672, 28.38538624 ] } },
{ "type": "Feature", "properties": { "nombre": "Casa del Platano", "actividad_tipo": "museos salas de arte", "municipio": "Icod de los Vinos", "calle": "Hercules", "numero": "4", "web": "www.casadelplatano.com", "direccion_completa": "Hercules, 4", "grupo_edu": "Cultura", "peso_inicial": 4.0 }, "geometry": { "type": "Point", "coordinates": [ -16.72151692, 28.36775282 ] } },
{ "type": "Feature", "properties": { "nombre": "Casa Museo Sierva de Dios", "actividad_tipo": "museos salas de arte", "municipio": "El Sauzal", "calle": "Sierva de Dios", "numero": "sn", "web": null, "direccion_completa": "Sierva de Dios, sn", "grupo_edu": "Cultura", "peso_inicial": 4.0 }, "geometry": { "type": "Point", "coordinates": [ -16.43753744, 28.47782597 ] } },
{ "type": "Feature", "properties": { "nombre": "CASAD Escuela de Actores de Canarias", "actividad_tipo": "enseñanza especializada", "municipio": "Santa Cruz de Tenerife", "calle": "Pedro Suarez Hernandez", "numero": "3", "web": "www.webeac.org", "direccion_completa": "Pedro Suarez Hernandez, 3", "grupo_edu": "Formacion", "peso_inicial": 6.0 }, "geometry": { "type": "Point", "coordinates": [ -16.27833181, 28.46006524 ] } },
{ "type": "Feature", "properties": { "nombre": "Casino de La Laguna", "actividad_tipo": "centro cultural", "municipio": "La Laguna", "calle": "Nava y Grimon", "numero": "7", "web": null, "direccion_completa": "Nava y Grimon, 7", "grupo_edu": "Cultura", "peso_inicial": 4.0 }, "geometry": { "type": "Point", "coordinates": [ -16.31363079, 28.48847549 ] } },
{ "type": "Feature", "properties": { "nombre": "Casino XI de Junio", "actividad_tipo": "centro cultural", "municipio": "Granadilla de Abona", "calle": "San Antonio", "numero": "9", "web": null, "direccion_completa": "San Antonio, 9", "grupo_edu": "Cultura", "peso_inicial": 4.0 }, "geometry": { "type": "Point", "coordinates": [ -16.578012, 28.12336479 ] } },
{ "type": "Feature", "properties": { "nombre": "Casona Rambla de Castro", "actividad_tipo": "centro cultural", "municipio": "Los Realejos", "calle": "El Guindaste", "numero": "2", "web": null, "direccion_completa": "El Guindaste, 2", "grupo_edu": "Cultura", "peso_inicial": 4.0 }, "geometry": { "type": "Point", "coordinates": [ -16.593768, 28.397061 ] } },
{ "type": "Feature", "properties": { "nombre": "Casona San Luis", "actividad_tipo": "centro cultural", "municipio": "Santa Úrsula", "calle": "La Malagueña", "numero": "3", "web": null, "direccion_completa": "La Malagueña, 3", "grupo_edu": "Cultura", "peso_inicial": 4.0 }, "geometry": { "type": "Point", "coordinates": [ -16.498959, 28.42285599 ] } },
{ "type": "Feature", "properties": { "nombre": "Castillo de San Cristobal", "actividad_tipo": "museos salas de arte", "municipio": "Santa Cruz de Tenerife", "calle": "España", "numero": "2", "web": null, "direccion_completa": "España, 2", "grupo_edu": "Cultura", "peso_inicial": 4.0 }, "geometry": { "type": "Point", "coordinates": [ -16.24702089, 28.46697097 ] } },
{ "type": "Feature", "properties": { "nombre": "Castillo Parque Museo Los Realejos", "actividad_tipo": "museos salas de arte", "municipio": "Los Realejos", "calle": "General TF 315 El Castillo", "numero": "11", "web": null, "direccion_completa": "General TF 315 El Castillo, 11", "grupo_edu": "Cultura", "peso_inicial": 4.0 }, "geometry": { "type": "Point", "coordinates": [ -16.57760065, 28.39315127 ] } },
{ "type": "Feature", "properties": { "nombre": "CEE Adeje", "actividad_tipo": "enseñanza especial", "municipio": "San Miguel", "calle": "Pizarro", "numero": "5", "web": "https://www3.gobiernodecanarias.org/medusa/edublog/ceeeadeje/", "direccion_completa": "Pizarro, 5", "grupo_edu": "Formacion", "peso_inicial": 6.0 }, "geometry": { "type": "Point", "coordinates": [ -16.63733541, 28.03474865 ] } },
{ "type": "Feature", "properties": { "nombre": "CEE Chacona", "actividad_tipo": "enseñanza especial", "municipio": "Güimar", "calle": "Honduras", "numero": "55", "web": null, "direccion_completa": "Honduras, 55", "grupo_edu": "Formacion", "peso_inicial": 6.0 }, "geometry": { "type": "Point", "coordinates": [ -16.41589471, 28.32606905 ] } },
{ "type": "Feature", "properties": { "nombre": "CEE Hermano Pedro", "actividad_tipo": "enseñanza especial", "municipio": "Santa Cruz de Tenerife", "calle": "Gara y Jonay", "numero": "1", "web": "http://www3.gobiernodecanarias.org/medusa/edublog/ceeehermanopedro", "direccion_completa": "Gara y Jonay, 1", "grupo_edu": "Formacion", "peso_inicial": 6.0 }, "geometry": { "type": "Point", "coordinates": [ -16.28085255, 28.45016071 ] } },
{ "type": "Feature", "properties": { "nombre": "CEE Ines Fuentes y González de Aledo", "actividad_tipo": "enseñanza especial", "municipio": "Icod de los Vinos", "calle": "Archipiélago Canario", "numero": "12", "web": "https://www3.gobiernodecanarias.org/medusa/edublog/ceeeinesfuentesygonzalezdealedo", "direccion_completa": "Archipiélago Canario, 12", "grupo_edu": "Formacion", "peso_inicial": 6.0 }, "geometry": { "type": "Point", "coordinates": [ -16.55915473, 28.39860274 ] } },
{ "type": "Feature", "properties": { "nombre": "CEEE Drago", "actividad_tipo": "enseñanza especial", "municipio": "La Laguna", "calle": "Los Menceyes", "numero": "135", "web": null, "direccion_completa": "Los Menceyes, 135", "grupo_edu": "Formacion", "peso_inicial": 6.0 }, "geometry": { "type": "Point", "coordinates": [ -16.3029305, 28.47362837 ] } },
{ "type": "Feature", "properties": { "nombre": "CEI Miluque", "actividad_tipo": "guarderias centros infantiles", "municipio": "Puerto de la Cruz", "calle": "Ruiman", "numero": "17", "web": "www.centroinfantilmiluque.com", "direccion_completa": "Ruiman, 17", "grupo_edu": "Colegio", "peso_inicial": 10.0 }, "geometry": { "type": "Point", "coordinates": [ -16.5654884, 28.41141107 ] } },
{ "type": "Feature", "properties": { "nombre": "CEIP Abona", "actividad_tipo": "enseñanza infantil y primaria", "municipio": "Granadilla de Abona", "calle": "Los Silos", "numero": "22", "web": null, "direccion_completa": "Los Silos, 22", "grupo_edu": "Colegio", "peso_inicial": 10.0 }, "geometry": { "type": "Point", "coordinates": [ -16.558156, 28.08730499 ] } },
{ "type": "Feature", "properties": { "nombre": "CEIP Acentejo I", "actividad_tipo": "enseñanza infantil y primaria", "municipio": "La Matanza", "calle": "Limeras", "numero": "58", "web": null, "direccion_completa": "Limeras, 58", "grupo_edu": "Colegio", "peso_inicial": 10.0 }, "geometry": { "type": "Point", "coordinates": [ -16.453579, 28.45170799 ] } },
{ "type": "Feature", "properties": { "nombre": "CEIP Acentejo II", "actividad_tipo": "enseñanza infantil y primaria", "municipio": "La Matanza", "calle": "Limeras", "numero": "9", "web": null, "direccion_completa": "Limeras, 9", "grupo_edu": "Colegio", "peso_inicial": 10.0 }, "geometry": { "type": "Point", "coordinates": [ -16.45293625, 28.45019643 ] } },
{ "type": "Feature", "properties": { "nombre": "CEIP Adeje", "actividad_tipo": "enseñanza infantil y primaria", "municipio": "Adeje", "calle": "Manuel Bello Ramos", "numero": "14", "web": null, "direccion_completa": "Manuel Bello Ramos, 14", "grupo_edu": "Colegio", "peso_inicial": 10.0 }, "geometry": { "type": "Point", "coordinates": [ -16.726917, 28.12034699 ] } },
{ "type": "Feature", "properties": { "nombre": "CEIP Adoracion Rodriguez Alonso", "actividad_tipo": "enseñanza infantil y primaria", "municipio": "Guía de Isora", "calle": "Mar Picada", "numero": "4", "web": null, "direccion_completa": "Mar Picada, 4", "grupo_edu": "Colegio", "peso_inicial": 10.0 }, "geometry": { "type": "Point", "coordinates": [ -16.8193159, 28.18500648 ] } },
{ "type": "Feature", "properties": { "nombre": "CEIP Agache", "actividad_tipo": "enseñanza infantil y primaria", "municipio": "Güimar", "calle": "Octavio Rodriguez Delgado", "numero": "6", "web": null, "direccion_completa": "Octavio Rodriguez Delgado, 6", "grupo_edu": "Colegio", "peso_inicial": 10.0 }, "geometry": { "type": "Point", "coordinates": [ -16.427864, 28.26509499 ] } },
{ "type": "Feature", "properties": { "nombre": "CEIP Aguamansa", "actividad_tipo": "enseñanza infantil y primaria", "municipio": "La Orotava", "calle": "El Velo", "numero": "20", "web": null, "direccion_completa": "El Velo, 20", "grupo_edu": "Colegio", "peso_inicial": 10.0 }, "geometry": { "type": "Point", "coordinates": [ -16.497537, 28.36547299 ] } },
{ "type": "Feature", "properties": { "nombre": "CEIP Aguere", "actividad_tipo": "enseñanza infantil y primaria", "municipio": "La Laguna", "calle": "Henry Dunant", "numero": "60", "web": null, "direccion_completa": "Henry Dunant, 60", "grupo_edu": "Colegio", "peso_inicial": 10.0 }, "geometry": { "type": "Point", "coordinates": [ -16.31898037, 28.48415526 ] } },
{ "type": "Feature", "properties": { "nombre": "CEIP Agustin Espinosa", "actividad_tipo": "enseñanza infantil y primaria", "municipio": "Los Realejos", "calle": "La Union", "numero": "16", "web": null, "direccion_completa": "La Union, 16", "grupo_edu": "Colegio", "peso_inicial": 10.0 }, "geometry": { "type": "Point", "coordinates": [ -16.585784, 28.385479 ] } },
{ "type": "Feature", "properties": { "nombre": "CEIP Aldea Blanca", "actividad_tipo": "enseñanza infantil y primaria", "municipio": "San Miguel", "calle": "Hermano Pedro", "numero": "17", "web": null, "direccion_completa": "Hermano Pedro, 17", "grupo_edu": "Colegio", "peso_inicial": 10.0 }, "geometry": { "type": "Point", "coordinates": [ -16.627074, 28.06448199 ] } },
{ "type": "Feature", "properties": { "nombre": "CEIP Alfonso Spinola", "actividad_tipo": "enseñanza infantil y primaria", "municipio": "Santa Cruz de Tenerife", "calle": "Tahodio", "numero": "4", "web": null, "direccion_completa": "Tahodio, 4", "grupo_edu": "Colegio", "peso_inicial": 10.0 }, "geometry": { "type": "Point", "coordinates": [ -16.24711935, 28.48596433 ] } },
{ "type": "Feature", "properties": { "nombre": "CEIP Alfonso X El Sabio", "actividad_tipo": "enseñanza infantil y primaria", "municipio": "Güimar", "calle": "Poeta Aristides Hernandez Mora", "numero": "22", "web": null, "direccion_completa": "Poeta Aristides Hernandez Mora, 22", "grupo_edu": "Colegio", "peso_inicial": 10.0 }, "geometry": { "type": "Point", "coordinates": [ -16.404761, 28.31606899 ] } },
{ "type": "Feature", "properties": { "nombre": "CEIP Almacigo", "actividad_tipo": "enseñanza infantil y primaria", "municipio": "Guía de Isora", "calle": "La Constitucion", "numero": "6", "web": null, "direccion_completa": "La Constitucion, 6", "grupo_edu": "Colegio", "peso_inicial": 10.0 }, "geometry": { "type": "Point", "coordinates": [ -16.781452, 28.21564999 ] } },
{ "type": "Feature", "properties": { "nombre": "CEIP Alonso Nava y Grimon", "actividad_tipo": "enseñanza infantil y primaria", "municipio": "La Laguna", "calle": "Domingo Gonzalez Perez", "numero": "9", "web": null, "direccion_completa": "Domingo Gonzalez Perez, 9", "grupo_edu": "Colegio", "peso_inicial": 10.0 }, "geometry": { "type": "Point", "coordinates": [ -16.3204548, 28.47328379 ] } },
{ "type": "Feature", "properties": { "nombre": "CEIP Angel Guimera", "actividad_tipo": "enseñanza infantil y primaria", "municipio": "San Juan de la Rambla", "calle": "Obispo Perez Caceres", "numero": "10", "web": null, "direccion_completa": "Obispo Perez Caceres, 10", "grupo_edu": "Colegio", "peso_inicial": 10.0 }, "geometry": { "type": "Point", "coordinates": [ -16.650171, 28.39509399 ] } },
{ "type": "Feature", "properties": { "nombre": "CEIP Angeles Bermejo", "actividad_tipo": "enseñanza infantil y primaria", "municipio": "La Laguna", "calle": "El Colegio", "numero": "31", "web": null, "direccion_completa": "El Colegio, 31", "grupo_edu": "Colegio", "peso_inicial": 10.0 }, "geometry": { "type": "Point", "coordinates": [ -16.28783922, 28.47010402 ] } },
{ "type": "Feature", "properties": { "nombre": "CEIP Antonio del Valle Menendez", "actividad_tipo": "enseñanza infantil y primaria", "municipio": "Garachico", "calle": "Santo Domingo", "numero": "10", "web": null, "direccion_completa": "Santo Domingo, 10", "grupo_edu": "Colegio", "peso_inicial": 10.0 }, "geometry": { "type": "Point", "coordinates": [ -16.7603309, 28.3734294 ] } },
{ "type": "Feature", "properties": { "nombre": "CEIP Aponte", "actividad_tipo": "enseñanza infantil y primaria", "municipio": "Guía de Isora", "calle": "Aponte", "numero": "8", "web": null, "direccion_completa": "Aponte, 8", "grupo_edu": "Colegio", "peso_inicial": 10.0 }, "geometry": { "type": "Point", "coordinates": [ -16.826428, 28.20507199 ] } },
{ "type": "Feature", "properties": { "nombre": "CEIP Araya", "actividad_tipo": "enseñanza infantil y primaria", "municipio": "Candelaria", "calle": "Morra Cha Concha", "numero": "4", "web": null, "direccion_completa": "Morra Cha Concha, 4", "grupo_edu": "Colegio", "peso_inicial": 10.0 }, "geometry": { "type": "Point", "coordinates": [ -16.393137, 28.36296899 ] } },
{ "type": "Feature", "properties": { "nombre": "CEIP Aregume", "actividad_tipo": "enseñanza infantil y primaria", "municipio": "Los Silos", "calle": "El Esparragal", "numero": "2", "web": null, "direccion_completa": "El Esparragal, 2", "grupo_edu": "Colegio", "peso_inicial": 10.0 }, "geometry": { "type": "Point", "coordinates": [ -16.82044, 28.36639199 ] } },
{ "type": "Feature", "properties": { "nombre": "CEIP Armeñime", "actividad_tipo": "enseñanza infantil y primaria", "municipio": "Adeje", "calle": "Ruben Dario", "numero": "2", "web": null, "direccion_completa": "Ruben Dario, 2", "grupo_edu": "Colegio", "peso_inicial": 10.0 }, "geometry": { "type": "Point", "coordinates": [ -16.753386, 28.13036499 ] } },
{ "type": "Feature", "properties": { "nombre": "CEIP Atalaya", "actividad_tipo": "enseñanza infantil y primaria", "municipio": "La Matanza", "calle": "La Cruz", "numero": "7", "web": null, "direccion_completa": "La Cruz, 7", "grupo_edu": "Colegio", "peso_inicial": 10.0 }, "geometry": { "type": "Point", "coordinates": [ -16.445379, 28.44861399 ] } },
{ "type": "Feature", "properties": { "nombre": "CEIP Aurelio Acosta Fernandez", "actividad_tipo": "enseñanza infantil y primaria", "municipio": "Santiago del Teide", "calle": "San Isidro", "numero": "13", "web": null, "direccion_completa": "San Isidro, 13", "grupo_edu": "Colegio", "peso_inicial": 10.0 }, "geometry": { "type": "Point", "coordinates": [ -16.807149, 28.26948799 ] } },
{ "type": "Feature", "properties": { "nombre": "CEIP Ayatimas", "actividad_tipo": "enseñanza infantil y primaria", "municipio": "La Laguna", "calle": "Calvario", "numero": "58", "web": null, "direccion_completa": "Calvario, 58", "grupo_edu": "Colegio", "peso_inicial": 10.0 }, "geometry": { "type": "Point", "coordinates": [ -16.38926082, 28.52043708 ] } },
{ "type": "Feature", "properties": { "nombre": "CEIP Bajos y Tagoro", "actividad_tipo": "enseñanza infantil y primaria", "municipio": "La Victoria", "calle": "Los Bajos", "numero": "74", "web": null, "direccion_completa": "Los Bajos, 74", "grupo_edu": "Colegio", "peso_inicial": 10.0 }, "geometry": { "type": "Point", "coordinates": [ -16.476749, 28.42877999 ] } },
{ "type": "Feature", "properties": { "nombre": "CEIP Baldomero Bethencourt Frances ", "actividad_tipo": "enseñanza infantil y primaria", "municipio": "Icod de los Vinos", "calle": "Antonio Perez Diaz", "numero": "20", "web": null, "direccion_completa": "Antonio Perez Diaz, 20", "grupo_edu": "Colegio", "peso_inicial": 10.0 }, "geometry": { "type": "Point", "coordinates": [ -16.71083, 28.37455099 ] } },
{ "type": "Feature", "properties": { "nombre": "CEIP Barranco Las Lajas", "actividad_tipo": "enseñanza infantil y primaria", "municipio": "Tacoronte", "calle": "Los Sabandeños", "numero": "20", "web": null, "direccion_completa": "Los Sabandeños, 20", "grupo_edu": "Colegio", "peso_inicial": 10.0 }, "geometry": { "type": "Point", "coordinates": [ -16.385753, 28.46880099 ] } },
{ "type": "Feature", "properties": { "nombre": "CEIP Barranco Las Torres", "actividad_tipo": "enseñanza infantil y primaria", "municipio": "Adeje", "calle": "Bentinerfe", "numero": "s/n", "web": "www3.gobiernodecanarias.org/medusa/edublog/ceipbarrancodelastorres", "direccion_completa": "Bentinerfe, s/n", "grupo_edu": "Colegio", "peso_inicial": 10.0 }, "geometry": { "type": "Point", "coordinates": [ -16.73436074, 28.1263879 ] } },
{ "type": "Feature", "properties": { "nombre": "CEIP Buzanada", "actividad_tipo": "enseñanza infantil y primaria", "municipio": "Arona", "calle": "Adobe", "numero": "7", "web": null, "direccion_completa": "Adobe, 7", "grupo_edu": "Colegio", "peso_inicial": 10.0 }, "geometry": { "type": "Point", "coordinates": [ -16.652923, 28.07270998 ] } },
{ "type": "Feature", "properties": { "nombre": "CEIP Cabo Blanco", "actividad_tipo": "enseñanza infantil y primaria", "municipio": "Arona", "calle": "Abrigaño", "numero": "2", "web": null, "direccion_completa": "Abrigaño, 2", "grupo_edu": "Colegio", "peso_inicial": 10.0 }, "geometry": { "type": "Point", "coordinates": [ -16.671831, 28.07776198 ] } },
{ "type": "Feature", "properties": { "nombre": "CEIP Camino Chasna", "actividad_tipo": "enseñanza infantil y primaria", "municipio": "La Orotava", "calle": "General TF 326 Benijos", "numero": "34", "web": null, "direccion_completa": "General TF 326 Benijos, 34", "grupo_edu": "Colegio", "peso_inicial": 10.0 }, "geometry": { "type": "Point", "coordinates": [ -16.52865, 28.36715999 ] } },
{ "type": "Feature", "properties": { "nombre": "CEIP Camino La Villa", "actividad_tipo": "enseñanza infantil y primaria", "municipio": "La Laguna", "calle": "Airam", "numero": "2", "web": null, "direccion_completa": "Airam, 2", "grupo_edu": "Colegio", "peso_inicial": 10.0 }, "geometry": { "type": "Point", "coordinates": [ -16.32830064, 28.48489125 ] } },
{ "type": "Feature", "properties": { "nombre": "CEIP Camino Largo", "actividad_tipo": "enseñanza infantil y primaria", "municipio": "La Laguna", "calle": "Republica Argentina", "numero": "1", "web": null, "direccion_completa": "Republica Argentina, 1", "grupo_edu": "Colegio", "peso_inicial": 10.0 }, "geometry": { "type": "Point", "coordinates": [ -16.31580787, 28.49378861 ] } },
{ "type": "Feature", "properties": { "nombre": "CEIP Campino", "actividad_tipo": "enseñanza infantil y primaria", "municipio": "Icod de los Vinos", "calle": "El Amparo", "numero": "41", "web": "www3.gobiernodecanarias.org/medusa/edublog/ceipcampino", "direccion_completa": "El Amparo, 41", "grupo_edu": "Colegio", "peso_inicial": 10.0 }, "geometry": { "type": "Point", "coordinates": [ -16.718222, 28.36361299 ] } },
{ "type": "Feature", "properties": { "nombre": "CEIP Cardonal I", "actividad_tipo": "enseñanza infantil y primaria", "municipio": "La Laguna", "calle": "Vallehermoso", "numero": "0", "web": "www.gobiernodecanarias.org/medusa/edublog/ceipcardonali", "direccion_completa": "Vallehermoso, 0", "grupo_edu": "Colegio", "peso_inicial": 10.0 }, "geometry": { "type": "Point", "coordinates": [ -16.3015596, 28.44876161 ] } },
{ "type": "Feature", "properties": { "nombre": "CEIP Carmen Alvarez de la Rosa", "actividad_tipo": "enseñanza infantil y primaria", "municipio": "Candelaria", "calle": "Llano de la Rosa", "numero": "51", "web": null, "direccion_completa": "Llano de la Rosa, 51", "grupo_edu": "Colegio", "peso_inicial": 10.0 }, "geometry": { "type": "Point", "coordinates": [ -16.355645, 28.39571199 ] } },
{ "type": "Feature", "properties": { "nombre": "CEIP Cesar Manrique", "actividad_tipo": "enseñanza infantil y primaria", "municipio": "Puerto de la Cruz", "calle": "Blas Perez Gonzalez", "numero": "15", "web": null, "direccion_completa": "Blas Perez Gonzalez, 15", "grupo_edu": "Colegio", "peso_inicial": 10.0 }, "geometry": { "type": "Point", "coordinates": [ -16.553985, 28.41112799 ] } },
{ "type": "Feature", "properties": { "nombre": "CEIP Cisneros Alter", "actividad_tipo": "enseñanza infantil y primaria", "municipio": "La Laguna", "calle": "Bentejui", "numero": "9", "web": "www.cisnerosalter.com", "direccion_completa": "Bentejui, 9", "grupo_edu": "Colegio", "peso_inicial": 10.0 }, "geometry": { "type": "Point", "coordinates": [ -16.29141285, 28.47518944 ] } },
{ "type": "Feature", "properties": { "nombre": "CEIP Clorinda Salazar", "actividad_tipo": "enseñanza infantil y primaria", "municipio": "La Laguna", "calle": "Las Nieves", "numero": "5", "web": null, "direccion_completa": "Las Nieves, 5", "grupo_edu": "Colegio", "peso_inicial": 10.0 }, "geometry": { "type": "Point", "coordinates": [ -16.29822769, 28.47692519 ] } },
{ "type": "Feature", "properties": { "nombre": "CEIP Charco del Pino", "actividad_tipo": "enseñanza infantil y primaria", "municipio": "Granadilla de Abona", "calle": "Charcay", "numero": "142", "web": null, "direccion_completa": "Charcay, 142", "grupo_edu": "Colegio", "peso_inicial": 10.0 }, "geometry": { "type": "Point", "coordinates": [ -16.589752, 28.10482222 ] } },
{ "type": "Feature", "properties": { "nombre": "CEIP Chayofa La Camella", "actividad_tipo": "enseñanza infantil y primaria", "municipio": "Arona", "calle": "Relinchon", "numero": "17", "web": null, "direccion_completa": "Relinchon, 17", "grupo_edu": "Colegio", "peso_inicial": 10.0 }, "geometry": { "type": "Point", "coordinates": [ -16.68162799, 28.07597898 ] } },
{ "type": "Feature", "properties": { "nombre": "CEIP Chigora Nuevo 1", "actividad_tipo": "enseñanza infantil y primaria", "municipio": "Guía de Isora", "calle": "La Florida", "numero": "22", "web": null, "direccion_completa": "La Florida, 22", "grupo_edu": "Colegio", "peso_inicial": 10.0 }, "geometry": { "type": "Point", "coordinates": [ -16.79875, 28.24086799 ] } },
{ "type": "Feature", "properties": { "nombre": "CEIP Chiguergue", "actividad_tipo": "enseñanza infantil y primaria", "municipio": "Guía de Isora", "calle": "Cervantes", "numero": "22", "web": null, "direccion_completa": "Cervantes, 22", "grupo_edu": "Colegio", "peso_inicial": 10.0 }, "geometry": { "type": "Point", "coordinates": [ -16.782918, 28.22619799 ] } },
{ "type": "Feature", "properties": { "nombre": "CEIP Chimisay", "actividad_tipo": "enseñanza infantil y primaria", "municipio": "Santa Cruz de Tenerife", "calle": "Domingo Salazar Cologan", "numero": "3", "web": null, "direccion_completa": "Domingo Salazar Cologan, 3", "grupo_edu": "Colegio", "peso_inicial": 10.0 }, "geometry": { "type": "Point", "coordinates": [ -16.28285131, 28.45832597 ] } },
{ "type": "Feature", "properties": { "nombre": "CEIP Chirche", "actividad_tipo": "enseñanza infantil y primaria", "municipio": "Guía de Isora", "calle": "Los Cascajitos", "numero": "5", "web": null, "direccion_completa": "Los Cascajitos, 5", "grupo_edu": "Colegio", "peso_inicial": 10.0 }, "geometry": { "type": "Point", "coordinates": [ -16.762355, 28.21895299 ] } },
{ "type": "Feature", "properties": { "nombre": "CEIP Dominguez Afonso", "actividad_tipo": "enseñanza infantil y primaria", "municipio": "La Orotava", "calle": "Quiquira Bajo", "numero": "8", "web": null, "direccion_completa": "Quiquira Bajo, 8", "grupo_edu": "Colegio", "peso_inicial": 10.0 }, "geometry": { "type": "Point", "coordinates": [ -16.514189, 28.39741299 ] } },
{ "type": "Feature", "properties": { "nombre": "CEIP El Amparo", "actividad_tipo": "enseñanza infantil y primaria", "municipio": "Icod de los Vinos", "calle": "General TF 366 El Amparo", "numero": "9", "web": null, "direccion_completa": "General TF 366 El Amparo, 9", "grupo_edu": "Colegio", "peso_inicial": 10.0 }, "geometry": { "type": "Point", "coordinates": [ -16.716399, 28.35493299 ] } },
{ "type": "Feature", "properties": { "nombre": "CEIP El Chapatal", "actividad_tipo": "enseñanza infantil y primaria", "municipio": "Santa Cruz de Tenerife", "calle": "Unamuno", "numero": "1", "web": null, "direccion_completa": "Unamuno, 1", "grupo_edu": "Colegio", "peso_inicial": 10.0 }, "geometry": { "type": "Point", "coordinates": [ -16.26429869, 28.46159953 ] } },
{ "type": "Feature", "properties": { "nombre": "CEIP El Draguillo", "actividad_tipo": "enseñanza infantil y primaria", "municipio": "Santa Cruz de Tenerife", "calle": "Maria de la Paz", "numero": "7", "web": "www.gobiernodecanarias.org/medusa/edublogs/ceipeldraguillo", "direccion_completa": "Maria de la Paz, 7", "grupo_edu": "Colegio", "peso_inicial": 10.0 }, "geometry": { "type": "Point", "coordinates": [ -16.30295382, 28.4383496 ] } },
{ "type": "Feature", "properties": { "nombre": "CEIP El Fraile", "actividad_tipo": "enseñanza infantil y primaria", "municipio": "Arona", "calle": "Islas Canarias", "numero": "22", "web": null, "direccion_completa": "Islas Canarias, 22", "grupo_edu": "Colegio", "peso_inicial": 10.0 }, "geometry": { "type": "Point", "coordinates": [ -16.66927199, 28.01343599 ] } },
{ "type": "Feature", "properties": { "nombre": "CEIP El Monte", "actividad_tipo": "enseñanza infantil y primaria", "municipio": "San Miguel", "calle": "Benito Perez Armas", "numero": "3", "web": null, "direccion_completa": "Benito Perez Armas, 3", "grupo_edu": "Colegio", "peso_inicial": 10.0 }, "geometry": { "type": "Point", "coordinates": [ -16.632563, 28.03861199 ] } },
{ "type": "Feature", "properties": { "nombre": "CEIP El Ortigal", "actividad_tipo": "enseñanza infantil y primaria", "municipio": "La Laguna", "calle": "Alfredo Hernandez Canino", "numero": "241", "web": null, "direccion_completa": "Alfredo Hernandez Canino, 241", "grupo_edu": "Colegio", "peso_inicial": 10.0 }, "geometry": { "type": "Point", "coordinates": [ -16.36623568, 28.48342159 ] } },
{ "type": "Feature", "properties": { "nombre": "CEIP El Rio", "actividad_tipo": "enseñanza infantil y primaria", "municipio": "Arico", "calle": "El Boche", "numero": "7", "web": null, "direccion_completa": "El Boche, 7", "grupo_edu": "Colegio", "peso_inicial": 10.0 }, "geometry": { "type": "Point", "coordinates": [ -16.523148, 28.14272899 ] } },
{ "type": "Feature", "properties": { "nombre": "CEIP El Roque", "actividad_tipo": "enseñanza infantil y primaria", "municipio": "San Miguel", "calle": "La Calzada", "numero": "54", "web": null, "direccion_completa": "La Calzada, 54", "grupo_edu": "Colegio", "peso_inicial": 10.0 }, "geometry": { "type": "Point", "coordinates": [ -16.63585, 28.09442299 ] } },
{ "type": "Feature", "properties": { "nombre": "CEIP El Tablero", "actividad_tipo": "enseñanza infantil y primaria", "municipio": "Santa Cruz de Tenerife", "calle": "Castaño", "numero": "6", "web": null, "direccion_completa": "Castaño, 6", "grupo_edu": "Colegio", "peso_inicial": 10.0 }, "geometry": { "type": "Point", "coordinates": [ -16.33231901, 28.42118264 ] } },
{ "type": "Feature", "properties": { "nombre": "CEIP El Topo", "actividad_tipo": "enseñanza infantil y primaria", "municipio": "Granadilla de Abona", "calle": "Mararia", "numero": "6", "web": "www.centroinfantileltopo.com", "direccion_completa": "Mararia, 6", "grupo_edu": "Colegio", "peso_inicial": 10.0 }, "geometry": { "type": "Point", "coordinates": [ -16.54420562, 28.0542793 ] } },
{ "type": "Feature", "properties": { "nombre": "CEIP Emeterio Gutierrez Albelo", "actividad_tipo": "enseñanza infantil y primaria", "municipio": "Icod de los Vinos", "calle": "Elias Serra Rafols", "numero": "8", "web": null, "direccion_completa": "Elias Serra Rafols, 8", "grupo_edu": "Colegio", "peso_inicial": 10.0 }, "geometry": { "type": "Point", "coordinates": [ -16.70905, 28.36834199 ] } },
{ "type": "Feature", "properties": { "nombre": "CEIP Emeterio Gutierrez Albelo Agua Garcia", "actividad_tipo": "enseñanza infantil y primaria", "municipio": "Tacoronte", "calle": "Cecilio Marrero", "numero": "8", "web": null, "direccion_completa": "Cecilio Marrero, 8", "grupo_edu": "Colegio", "peso_inicial": 10.0 }, "geometry": { "type": "Point", "coordinates": [ -16.40327, 28.46673799 ] } },
{ "type": "Feature", "properties": { "nombre": "CEIP Enrique Gonzalez Martin", "actividad_tipo": "enseñanza infantil y primaria", "municipio": "Icod de los Vinos", "calle": "La Palma", "numero": "8", "web": null, "direccion_completa": "La Palma, 8", "grupo_edu": "Colegio", "peso_inicial": 10.0 }, "geometry": { "type": "Point", "coordinates": [ -16.692962, 28.36912799 ] } },
{ "type": "Feature", "properties": { "nombre": "CEIP Erjos", "actividad_tipo": "enseñanza infantil y primaria", "municipio": "Los Silos", "calle": "Los Roquillos", "numero": "1", "web": null, "direccion_completa": "Los Roquillos, 1", "grupo_edu": "Colegio", "peso_inicial": 10.0 }, "geometry": { "type": "Point", "coordinates": [ -16.80512, 28.32868799 ] } },
{ "type": "Feature", "properties": { "nombre": "CEIP Ernesto Castro Fariñas 1", "actividad_tipo": "enseñanza infantil y primaria", "municipio": "Tacoronte", "calle": "El Llano", "numero": "13", "web": null, "direccion_completa": "El Llano, 13", "grupo_edu": "Colegio", "peso_inicial": 10.0 }, "geometry": { "type": "Point", "coordinates": [ -16.396188, 28.48449399 ] } },
{ "type": "Feature", "properties": { "nombre": "CEIP Fañabe", "actividad_tipo": "enseñanza infantil y primaria", "municipio": "Adeje", "calle": "Isla de La Gomera", "numero": "192", "web": null, "direccion_completa": "Isla de La Gomera, 192", "grupo_edu": "Colegio", "peso_inicial": 10.0 }, "geometry": { "type": "Point", "coordinates": [ -16.731837, 28.10908299 ] } },
{ "type": "Feature", "properties": { "nombre": "CEIP Feliciano Hernandez Garcia", "actividad_tipo": "enseñanza infantil y primaria", "municipio": "Santiago del Teide", "calle": "La Iglesia", "numero": "2", "web": null, "direccion_completa": "La Iglesia, 2", "grupo_edu": "Colegio", "peso_inicial": 10.0 }, "geometry": { "type": "Point", "coordinates": [ -16.813724, 28.29223299 ] } },
{ "type": "Feature", "properties": { "nombre": "CEIP Fernando III El Santo", "actividad_tipo": "enseñanza infantil y primaria", "municipio": "La Laguna", "calle": "Maria Rosa Alonso", "numero": "50", "web": null, "direccion_completa": "Maria Rosa Alonso, 50", "grupo_edu": "Colegio", "peso_inicial": 10.0 }, "geometry": { "type": "Point", "coordinates": [ -16.29373158, 28.46639698 ] } },
{ "type": "Feature", "properties": { "nombre": "CEIP Floppy Bilingue", "actividad_tipo": "enseñanza infantil y primaria", "municipio": "Santa Cruz de Tenerife", "calle": "Subida Cuesta Piedra", "numero": "21", "web": null, "direccion_completa": "Subida Cuesta Piedra, 21", "grupo_edu": "Colegio", "peso_inicial": 10.0 }, "geometry": { "type": "Point", "coordinates": [ -16.27473098, 28.46403637 ] } },
{ "type": "Feature", "properties": { "nombre": "CEIP Francisca Santos Melian", "actividad_tipo": "enseñanza infantil y primaria", "municipio": "Tegueste", "calle": "General TF 154 Portezuelo Las Toscas", "numero": "214", "web": null, "direccion_completa": "General TF 154 Portezuelo Las Toscas, 214", "grupo_edu": "Colegio", "peso_inicial": 10.0 }, "geometry": { "type": "Point", "coordinates": [ -16.361032, 28.50955099 ] } },
{ "type": "Feature", "properties": { "nombre": "CEIP Francisco Afonso Carrillo", "actividad_tipo": "enseñanza infantil y primaria", "municipio": "San Juan de la Rambla", "calle": "La Vera Baja", "numero": "2", "web": null, "direccion_completa": "La Vera Baja, 2", "grupo_edu": "Colegio", "peso_inicial": 10.0 }, "geometry": { "type": "Point", "coordinates": [ -16.640771, 28.37993299 ] } },
{ "type": "Feature", "properties": { "nombre": "CEIP Fray Albino", "actividad_tipo": "enseñanza infantil y primaria", "municipio": "Santa Cruz de Tenerife", "calle": "Santa Cruz", "numero": "140", "web": null, "direccion_completa": "Santa Cruz, 140", "grupo_edu": "Colegio", "peso_inicial": 10.0 }, "geometry": { "type": "Point", "coordinates": [ -16.25032532, 28.47505209 ] } },
{ "type": "Feature", "properties": { "nombre": "CEIP Froilan Hernandez Gonzalez", "actividad_tipo": "enseñanza infantil y primaria", "municipio": "Granadilla de Abona", "calle": "Velazquez", "numero": "29", "web": null, "direccion_completa": "Velazquez, 29", "grupo_edu": "Colegio", "peso_inicial": 10.0 }, "geometry": { "type": "Point", "coordinates": [ -16.561759, 28.10890899 ] } },
{ "type": "Feature", "properties": { "nombre": "CEIP Garcia Escamez", "actividad_tipo": "enseñanza infantil y primaria", "municipio": "Santa Cruz de Tenerife", "calle": "Marrero Torres", "numero": "2", "web": null, "direccion_completa": "Marrero Torres, 2", "grupo_edu": "Colegio", "peso_inicial": 10.0 }, "geometry": { "type": "Point", "coordinates": [ -16.27321028, 28.4559467 ] } },
{ "type": "Feature", "properties": { "nombre": "CEIP Genoves", "actividad_tipo": "enseñanza infantil y primaria", "municipio": "Garachico", "calle": "El Pino", "numero": "6", "web": null, "direccion_completa": "El Pino, 6", "grupo_edu": "Colegio", "peso_inicial": 10.0 }, "geometry": { "type": "Point", "coordinates": [ -16.744237, 28.36611199 ] } },
{ "type": "Feature", "properties": { "nombre": "CEIP Granadilla de Abona", "actividad_tipo": "enseñanza infantil y primaria", "municipio": "Granadilla de Abona", "calle": "Hilario", "numero": "1", "web": null, "direccion_completa": "Hilario, 1", "grupo_edu": "Colegio", "peso_inicial": 10.0 }, "geometry": { "type": "Point", "coordinates": [ -16.587133, 28.11151199 ] } },
{ "type": "Feature", "properties": { "nombre": "CEIP Guayonge", "actividad_tipo": "enseñanza infantil y primaria", "municipio": "Tacoronte", "calle": "Lomo La Vieja", "numero": "10", "web": null, "direccion_completa": "Lomo La Vieja, 10", "grupo_edu": "Colegio", "peso_inicial": 10.0 }, "geometry": { "type": "Point", "coordinates": [ -16.41737239, 28.48975717 ] } },
{ "type": "Feature", "properties": { "nombre": "CEIP Hamelin", "actividad_tipo": "enseñanza infantil y primaria", "municipio": "Los Realejos", "calle": "Ruiz Andion", "numero": "37", "web": null, "direccion_completa": "Ruiz Andion, 37", "grupo_edu": "Colegio", "peso_inicial": 10.0 }, "geometry": { "type": "Point", "coordinates": [ -16.58173178, 28.38852044 ] } },
{ "type": "Feature", "properties": { "nombre": "CEIP Igueste", "actividad_tipo": "enseñanza infantil y primaria", "municipio": "Candelaria", "calle": "Juan Pestano", "numero": "102", "web": null, "direccion_completa": "Juan Pestano, 102", "grupo_edu": "Colegio", "peso_inicial": 10.0 }, "geometry": { "type": "Point", "coordinates": [ -16.368737, 28.38274699 ] } },
{ "type": "Feature", "properties": { "nombre": "CEIP Infanta Elena", "actividad_tipo": "enseñanza infantil y primaria", "municipio": "La Orotava", "calle": "Colegio Infanta Elena", "numero": "1", "web": null, "direccion_completa": "Colegio Infanta Elena, 1", "grupo_edu": "Colegio", "peso_inicial": 10.0 }, "geometry": { "type": "Point", "coordinates": [ -16.553901, 28.37647899 ] } },
{ "type": "Feature", "properties": { "nombre": "CEIP Inocencio Sosa Hernandez", "actividad_tipo": "enseñanza infantil y primaria", "municipio": "La Orotava", "calle": "Aniceto Leon Alvarado", "numero": "1", "web": null, "direccion_completa": "Aniceto Leon Alvarado, 1", "grupo_edu": "Colegio", "peso_inicial": 10.0 }, "geometry": { "type": "Point", "coordinates": [ -16.535358, 28.38212699 ] } },
{ "type": "Feature", "properties": { "nombre": "CEIP Isabel La Catolica", "actividad_tipo": "enseñanza infantil y primaria", "municipio": "Santa Cruz de Tenerife", "calle": "Jose Hernandez Alfonso", "numero": "36", "web": null, "direccion_completa": "Jose Hernandez Alfonso, 36", "grupo_edu": "Colegio", "peso_inicial": 10.0 }, "geometry": { "type": "Point", "coordinates": [ -16.25390338, 28.46024878 ] } },
{ "type": "Feature", "properties": { "nombre": "CEIP Jose Esquivel", "actividad_tipo": "enseñanza infantil y primaria", "municipio": "Santiago del Teide", "calle": "El Lajial", "numero": "2", "web": null, "direccion_completa": "El Lajial, 2", "grupo_edu": "Colegio", "peso_inicial": 10.0 }, "geometry": { "type": "Point", "coordinates": [ -16.838389, 28.23354299 ] } },
{ "type": "Feature", "properties": { "nombre": "CEIP Jose Perez Rodriguez", "actividad_tipo": "enseñanza infantil y primaria", "municipio": "Santa Cruz de Tenerife", "calle": "Los Blanquitos", "numero": "26", "web": "www3.gobiernodecanarias.org/medusa/edublog/ceranaga", "direccion_completa": "Los Blanquitos, 26", "grupo_edu": "Colegio", "peso_inicial": 10.0 }, "geometry": { "type": "Point", "coordinates": [ -16.15581711, 28.52608919 ] } },
{ "type": "Feature", "properties": { "nombre": "CEIP Juan Bethencourt Alfonso ", "actividad_tipo": "enseñanza infantil y primaria", "municipio": "San Miguel", "calle": "Esther Rodrigurez Diaz", "numero": "7", "web": null, "direccion_completa": "Esther Rodrigurez Diaz, 7", "grupo_edu": "Colegio", "peso_inicial": 10.0 }, "geometry": { "type": "Point", "coordinates": [ -16.6143053, 28.076827 ] } },
{ "type": "Feature", "properties": { "nombre": "CEIP Juan Garcia Perez", "actividad_tipo": "enseñanza infantil y primaria", "municipio": "Granadilla de Abona", "calle": "Santiago Apostol", "numero": "5", "web": null, "direccion_completa": "Santiago Apostol, 5", "grupo_edu": "Colegio", "peso_inicial": 10.0 }, "geometry": { "type": "Point", "coordinates": [ -16.560661, 28.08012199 ] } },
{ "type": "Feature", "properties": { "nombre": "CEIP Julian Rojas de Vera", "actividad_tipo": "enseñanza infantil y primaria", "municipio": "Santa Cruz de Tenerife", "calle": "La Montañeta", "numero": "13", "web": null, "direccion_completa": "La Montañeta, 13", "grupo_edu": "Colegio", "peso_inicial": 10.0 }, "geometry": { "type": "Point", "coordinates": [ -16.21793908, 28.56276093 ] } },
{ "type": "Feature", "properties": { "nombre": "CEIP Julian Zafra Moreno", "actividad_tipo": "enseñanza infantil y primaria", "municipio": "Güimar", "calle": "Honduras", "numero": "0", "web": null, "direccion_completa": "Honduras, 0", "grupo_edu": "Colegio", "peso_inicial": 10.0 }, "geometry": { "type": "Point", "coordinates": [ -16.414241, 28.32313099 ] } },
{ "type": "Feature", "properties": { "nombre": "CEIP Julio Delgado", "actividad_tipo": "enseñanza infantil y primaria", "municipio": "Icod de los Vinos", "calle": "Fray Cristobal Oramas", "numero": "3", "web": "www3.gobiernodecanarias.org/medusa/edublog/ceipjuliodelgadodelgado", "direccion_completa": "Fray Cristobal Oramas, 3", "grupo_edu": "Colegio", "peso_inicial": 10.0 }, "geometry": { "type": "Point", "coordinates": [ -16.711701, 28.36797999 ] } },
{ "type": "Feature", "properties": { "nombre": "CEIP La Corujera", "actividad_tipo": "enseñanza infantil y primaria", "municipio": "Santa Úrsula", "calle": "Pino Alto", "numero": "6", "web": "www.gobiernodecanarias.org/educacion/9/usr/ceiplacorujera", "direccion_completa": "Pino Alto, 6", "grupo_edu": "Colegio", "peso_inicial": 10.0 }, "geometry": { "type": "Point", "coordinates": [ -16.497991, 28.41119699 ] } },
{ "type": "Feature", "properties": { "nombre": "CEIP La Costa Santo Domingo", "actividad_tipo": "enseñanza infantil y primaria", "municipio": "La Guancha", "calle": "La Iglesia Peatonal", "numero": "1", "web": null, "direccion_completa": "La Iglesia Peatonal, 1", "grupo_edu": "Colegio", "peso_inicial": 10.0 }, "geometry": { "type": "Point", "coordinates": [ -16.67303447, 28.3907384 ] } },
{ "type": "Feature", "properties": { "nombre": "CEIP La Cuesta", "actividad_tipo": "enseñanza infantil y primaria", "municipio": "Buenavista del Norte", "calle": "General TF 436 El Palmar", "numero": "26", "web": null, "direccion_completa": "General TF 436 El Palmar, 26", "grupo_edu": "Colegio", "peso_inicial": 10.0 }, "geometry": { "type": "Point", "coordinates": [ -16.845933, 28.36544599 ] } },
{ "type": "Feature", "properties": { "nombre": "CEIP La Cumbrita", "actividad_tipo": "enseñanza infantil y primaria", "municipio": "Guía de Isora", "calle": "La Cumbrita", "numero": "23", "web": null, "direccion_completa": "La Cumbrita, 23", "grupo_edu": "Colegio", "peso_inicial": 10.0 }, "geometry": { "type": "Point", "coordinates": [ -16.821917, 28.20022899 ] } },
{ "type": "Feature", "properties": { "nombre": "CEIP La Era", "actividad_tipo": "enseñanza infantil y primaria", "municipio": "Guía de Isora", "calle": "La Era", "numero": "1", "web": null, "direccion_completa": "La Era, 1", "grupo_edu": "Colegio", "peso_inicial": 10.0 }, "geometry": { "type": "Point", "coordinates": [ -16.776798, 28.21374299 ] } },