{
"type": "FeatureCollection",
"name": "restauracion",
"crs": { "type": "name", "properties": { "name": "urn:ogc:def:crs:OGC:1.3:CRS84" } },
"features": [
{ "type": "Feature", "properties": { "nombre": "¡¡¡Ñoo Que Rico!!!", "actividad": "tasca", "municipio": "Candelaria", "direccion": "Maritima", "numero": "9", "direccion_completa": "Maritima, 9", "grupo_restauracion": "Local_Tapeo", "peso_inicial": 5.0 }, "geometry": { "type": "Point", "coordinates": [ -16.36841411, 28.35915748 ] } },
{ "type": "Feature", "properties": { "nombre": "¿Hoy Que Hay?", "actividad": "cafeteria", "municipio": "La Orotava", "direccion": "Jose de Bethencourt y Castro Molina", "numero": "11", "direccion_completa": "Jose de Bethencourt y Castro Molina, 11", "grupo_restauracion": "Cafe", "peso_inicial": 5.0 }, "geometry": { "type": "Point", "coordinates": [ -16.52697617, 28.39332622 ] } },
{ "type": "Feature", "properties": { "nombre": "+ Que Carne", "actividad": "restaurante", "municipio": "Santa Cruz de Tenerife", "direccion": "Francisco La Roche", "numero": "43", "direccion_completa": "Francisco La Roche, 43", "grupo_restauracion": "Restaurante", "peso_inicial": 5.0 }, "geometry": { "type": "Point", "coordinates": [ -16.24697545, 28.4743401 ] } },
{ "type": "Feature", "properties": { "nombre": "+QTapas Low Cost Lounge", "actividad": "bar cafeteria", "municipio": "La Laguna", "direccion": "Alcalde Alonso Suarez Melian", "numero": "2", "direccion_completa": "Alcalde Alonso Suarez Melian, 2", "grupo_restauracion": "Local_Tapeo", "peso_inicial": 5.0 }, "geometry": { "type": "Point", "coordinates": [ -16.3166953, 28.48945946 ] } },
{ "type": "Feature", "properties": { "nombre": "+Que Bar", "actividad": "bar cafeteria", "municipio": "Santa Cruz de Tenerife", "direccion": "Juan Alvarez Garcia", "numero": "5", "direccion_completa": "Juan Alvarez Garcia, 5", "grupo_restauracion": "Local_Tapeo", "peso_inicial": 5.0 }, "geometry": { "type": "Point", "coordinates": [ -16.25228438, 28.46201405 ] } },
{ "type": "Feature", "properties": { "nombre": "+Que Churros", "actividad": "bar cafeteria", "municipio": "La Laguna", "direccion": "Presidente Adolfo Suarez", "numero": "3", "direccion_completa": "Presidente Adolfo Suarez, 3", "grupo_restauracion": "Local_Tapeo", "peso_inicial": 5.0 }, "geometry": { "type": "Point", "coordinates": [ -16.29025169, 28.46868018 ] } },
{ "type": "Feature", "properties": { "nombre": "+Que Noche Cafe", "actividad": "restaurante", "municipio": "Santa Cruz de Tenerife", "direccion": "La Salle", "numero": "22", "direccion_completa": "La Salle, 22", "grupo_restauracion": "Restaurante", "peso_inicial": 5.0 }, "geometry": { "type": "Point", "coordinates": [ -16.25685413, 28.46146289 ] } },
{ "type": "Feature", "properties": { "nombre": "+Que Perritos", "actividad": "bar cafeteria", "municipio": "Santa Cruz de Tenerife", "direccion": "General TF 28 Sur", "numero": "8", "direccion_completa": "General TF 28 Sur, 8", "grupo_restauracion": "Local_Tapeo", "peso_inicial": 5.0 }, "geometry": { "type": "Point", "coordinates": [ -16.30054101, 28.44469376 ] } },
{ "type": "Feature", "properties": { "nombre": "0S3 CeroStress", "actividad": "bar cafeteria", "municipio": "Adeje", "direccion": "Adeje 300", "numero": "10", "direccion_completa": "Adeje 300, 10", "grupo_restauracion": "Local_Tapeo", "peso_inicial": 5.0 }, "geometry": { "type": "Point", "coordinates": [ -16.77493421, 28.12188252 ] } },
{ "type": "Feature", "properties": { "nombre": "1-X-2", "actividad": "bar", "municipio": "Guía de Isora", "direccion": "La Entrada", "numero": "1", "direccion_completa": "La Entrada, 1", "grupo_restauracion": "Local_Tapeo", "peso_inicial": 5.0 }, "geometry": { "type": "Point", "coordinates": [ -16.78145696, 28.2120967 ] } },
{ "type": "Feature", "properties": { "nombre": "10 Años", "actividad": "bar cafeteria", "municipio": "La Matanza", "direccion": "Guia", "numero": "49", "direccion_completa": "Guia, 49", "grupo_restauracion": "Local_Tapeo", "peso_inicial": 5.0 }, "geometry": { "type": "Point", "coordinates": [ -16.46472276, 28.44286808 ] } },
{ "type": "Feature", "properties": { "nombre": "100  Montaditos", "actividad": "bar cafeteria", "municipio": "Arona", "direccion": "Chayofita", "numero": "18", "direccion_completa": "Chayofita, 18", "grupo_restauracion": "Local_Tapeo", "peso_inicial": 5.0 }, "geometry": { "type": "Point", "coordinates": [ -16.72053159, 28.05796304 ] } },
{ "type": "Feature", "properties": { "nombre": "100 % Natural", "actividad": "cafeteria", "municipio": "Arona", "direccion": "Roque de Jama", "numero": "2", "direccion_completa": "Roque de Jama, 2", "grupo_restauracion": "Cafe", "peso_inicial": 5.0 }, "geometry": { "type": "Point", "coordinates": [ -16.71735168, 28.0562077 ] } },
{ "type": "Feature", "properties": { "nombre": "100 Aromas", "actividad": "cafeteria", "municipio": "Arona", "direccion": "Los Sabandeños", "numero": "3", "direccion_completa": "Los Sabandeños, 3", "grupo_restauracion": "Cafe", "peso_inicial": 5.0 }, "geometry": { "type": "Point", "coordinates": [ -16.71467843, 28.05427069 ] } },
{ "type": "Feature", "properties": { "nombre": "100 montaditos", "actividad": "bar cafeteria", "municipio": "Garachico", "direccion": "Tome Cano", "numero": "14", "direccion_completa": "Tome Cano, 14", "grupo_restauracion": "Local_Tapeo", "peso_inicial": 5.0 }, "geometry": { "type": "Point", "coordinates": [ -16.76437792, 28.37477337 ] } },
{ "type": "Feature", "properties": { "nombre": "100 Montaditos", "actividad": "bar cafeteria", "municipio": "La Laguna", "direccion": "Obispo Rey Redondo", "numero": "16", "direccion_completa": "Obispo Rey Redondo, 16", "grupo_restauracion": "Local_Tapeo", "peso_inicial": 5.0 }, "geometry": { "type": "Point", "coordinates": [ -16.315859, 28.48825699 ] } },
{ "type": "Feature", "properties": { "nombre": "100 Montaditos", "actividad": "bar cafeteria", "municipio": "Adeje", "direccion": "Siam", "numero": "3", "direccion_completa": "Siam, 3", "grupo_restauracion": "Local_Tapeo", "peso_inicial": 5.0 }, "geometry": { "type": "Point", "coordinates": [ -16.72128358, 28.06860145 ] } },
{ "type": "Feature", "properties": { "nombre": "100 Montaditos", "actividad": "bar cafeteria", "municipio": "La Orotava", "direccion": "TF 5 Norte", "numero": "0", "direccion_completa": "TF 5 Norte, 0", "grupo_restauracion": "Local_Tapeo", "peso_inicial": 5.0 }, "geometry": { "type": "Point", "coordinates": [ -16.54650182, 28.39632299 ] } },
{ "type": "Feature", "properties": { "nombre": "100 Montaditos", "actividad": "restaurante", "municipio": "Candelaria", "direccion": "Patrona de Canarias", "numero": "14", "direccion_completa": "Patrona de Canarias, 14", "grupo_restauracion": "Restaurante", "peso_inicial": 5.0 }, "geometry": { "type": "Point", "coordinates": [ -16.37013215, 28.35221514 ] } },
{ "type": "Feature", "properties": { "nombre": "100 Montaditos", "actividad": "cafeteria", "municipio": "Santa Cruz de Tenerife", "direccion": "Candelaria", "numero": "10", "direccion_completa": "Candelaria, 10", "grupo_restauracion": "Cafe", "peso_inicial": 5.0 }, "geometry": { "type": "Point", "coordinates": [ -16.24853783, 28.46704666 ] } },
{ "type": "Feature", "properties": { "nombre": "100 Montaditos", "actividad": "restaurante", "municipio": "Puerto de la Cruz", "direccion": "San Juan", "numero": "3", "direccion_completa": "San Juan, 3", "grupo_restauracion": "Restaurante", "peso_inicial": 5.0 }, "geometry": { "type": "Point", "coordinates": [ -16.55005739, 28.41722199 ] } },
{ "type": "Feature", "properties": { "nombre": "100 Montaditos", "actividad": "bar cafeteria", "municipio": "Santa Cruz de Tenerife", "direccion": "Manuel Hermoso Rojas", "numero": "16", "direccion_completa": "Manuel Hermoso Rojas, 16", "grupo_restauracion": "Local_Tapeo", "peso_inicial": 5.0 }, "geometry": { "type": "Point", "coordinates": [ -16.25881351, 28.45670697 ] } },
{ "type": "Feature", "properties": { "nombre": "100 Montaditos", "actividad": "bar cafeteria", "municipio": "Granadilla de Abona", "direccion": "Francisco Garcia Feo", "numero": "1", "direccion_completa": "Francisco Garcia Feo, 1", "grupo_restauracion": "Local_Tapeo", "peso_inicial": 5.0 }, "geometry": { "type": "Point", "coordinates": [ -16.5379309, 28.0446769 ] } },
{ "type": "Feature", "properties": { "nombre": "100 Pizze Social Club 2.0", "actividad": "bar cafeteria", "municipio": "Adeje", "direccion": "Republica de Panama", "numero": "3", "direccion_completa": "Republica de Panama, 3", "grupo_restauracion": "Local_Tapeo", "peso_inicial": 5.0 }, "geometry": { "type": "Point", "coordinates": [ -16.73138295, 28.07067882 ] } },
{ "type": "Feature", "properties": { "nombre": "1000 Miglia", "actividad": "cafeteria", "municipio": "Adeje", "direccion": "Londres", "numero": "3", "direccion_completa": "Londres, 3", "grupo_restauracion": "Cafe", "peso_inicial": 5.0 }, "geometry": { "type": "Point", "coordinates": [ -16.73515435, 28.0858203 ] } },
{ "type": "Feature", "properties": { "nombre": "12 de Mayo", "actividad": "bar", "municipio": "Los Realejos", "direccion": "Medio Arriba", "numero": "53", "direccion_completa": "Medio Arriba, 53", "grupo_restauracion": "Local_Tapeo", "peso_inicial": 5.0 }, "geometry": { "type": "Point", "coordinates": [ -16.58517615, 28.37798333 ] } },
{ "type": "Feature", "properties": { "nombre": "13", "actividad": "restaurante", "municipio": "Santa Cruz de Tenerife", "direccion": "Muelle Santa Cruz Los Llanos", "numero": "0", "direccion_completa": "Muelle Santa Cruz Los Llanos, 0", "grupo_restauracion": "Restaurante", "peso_inicial": 5.0 }, "geometry": { "type": "Point", "coordinates": [ -16.24999758, 28.4570623 ] } },
{ "type": "Feature", "properties": { "nombre": "1628 Plaza Cafe", "actividad": "bar cafeteria", "municipio": "Santa Cruz de Tenerife", "direccion": "Manuel Hermoso Rojas", "numero": "16", "direccion_completa": "Manuel Hermoso Rojas, 16", "grupo_restauracion": "Local_Tapeo", "peso_inicial": 5.0 }, "geometry": { "type": "Point", "coordinates": [ -16.25895469, 28.45688247 ] } },
{ "type": "Feature", "properties": { "nombre": "1892 Club Cafe", "actividad": "cafeteria", "municipio": "Arona", "direccion": "Amsterdam", "numero": "6", "direccion_completa": "Amsterdam, 6", "grupo_restauracion": "Cafe", "peso_inicial": 5.0 }, "geometry": { "type": "Point", "coordinates": [ -16.70815055, 28.0504507 ] } },
{ "type": "Feature", "properties": { "nombre": "1960", "actividad": "restaurante", "municipio": "Arona", "direccion": "El Hierro", "numero": "10", "direccion_completa": "El Hierro, 10", "grupo_restauracion": "Restaurante", "peso_inicial": 5.0 }, "geometry": { "type": "Point", "coordinates": [ -16.6713714, 28.01326152 ] } },
{ "type": "Feature", "properties": { "nombre": "19Th Hole", "actividad": "restaurante", "municipio": "Arona", "direccion": "Las Americas", "numero": "8", "direccion_completa": "Las Americas, 8", "grupo_restauracion": "Restaurante", "peso_inicial": 5.0 }, "geometry": { "type": "Point", "coordinates": [ -16.72859816, 28.05400072 ] } },
{ "type": "Feature", "properties": { "nombre": "2 PAC", "actividad": "bar", "municipio": "La Laguna", "direccion": "Agrupacion Bincheny", "numero": "1", "direccion_completa": "Agrupacion Bincheny, 1", "grupo_restauracion": "Local_Tapeo", "peso_inicial": 5.0 }, "geometry": { "type": "Point", "coordinates": [ -16.29764767, 28.44849309 ] } },
{ "type": "Feature", "properties": { "nombre": "20 PA-K", "actividad": "bar cafeteria", "municipio": "La Guancha", "direccion": "Cristobal Barrios Rodriguez", "numero": "10", "direccion_completa": "Cristobal Barrios Rodriguez, 10", "grupo_restauracion": "Local_Tapeo", "peso_inicial": 5.0 }, "geometry": { "type": "Point", "coordinates": [ -16.65208536, 28.37707756 ] } },
{ "type": "Feature", "properties": { "nombre": "2001", "actividad": "bar cafeteria", "municipio": "La Laguna", "direccion": "General TF 28 El Rosario", "numero": "23", "direccion_completa": "General TF 28 El Rosario, 23", "grupo_restauracion": "Local_Tapeo", "peso_inicial": 5.0 }, "geometry": { "type": "Point", "coordinates": [ -16.297833, 28.44678699 ] } },
{ "type": "Feature", "properties": { "nombre": "24 K Lounge Bar", "actividad": "bar cafeteria", "municipio": "Adeje", "direccion": "Colon", "numero": "5", "direccion_completa": "Colon, 5", "grupo_restauracion": "Local_Tapeo", "peso_inicial": 5.0 }, "geometry": { "type": "Point", "coordinates": [ -16.73486263, 28.07820463 ] } },
{ "type": "Feature", "properties": { "nombre": "3 de Abril", "actividad": "bar cafeteria", "municipio": "La Laguna", "direccion": "General TF 194 La Cuesta Taco", "numero": "108", "direccion_completa": "General TF 194 La Cuesta Taco, 108", "grupo_restauracion": "Local_Tapeo", "peso_inicial": 5.0 }, "geometry": { "type": "Point", "coordinates": [ -16.29301579, 28.45763461 ] } },
{ "type": "Feature", "properties": { "nombre": "39", "actividad": "restaurante", "municipio": "Arona", "direccion": "San Francisco", "numero": "2", "direccion_completa": "San Francisco, 2", "grupo_restauracion": "Restaurante", "peso_inicial": 5.0 }, "geometry": { "type": "Point", "coordinates": [ -16.70764293, 28.05175587 ] } },
{ "type": "Feature", "properties": { "nombre": "4 Esquinas", "actividad": "restaurante", "municipio": "San Miguel", "direccion": "General TF 65 Los Abrigos", "numero": "19", "direccion_completa": "General TF 65 Los Abrigos, 19", "grupo_restauracion": "Restaurante", "peso_inicial": 5.0 }, "geometry": { "type": "Point", "coordinates": [ -16.61752823, 28.09783533 ] } },
{ "type": "Feature", "properties": { "nombre": "4 x 4", "actividad": "bar", "municipio": "Santiago del Teide", "direccion": "Poblado Marinero", "numero": "2", "direccion_completa": "Poblado Marinero, 2", "grupo_restauracion": "Local_Tapeo", "peso_inicial": 5.0 }, "geometry": { "type": "Point", "coordinates": [ -16.84221468, 28.24599343 ] } },
{ "type": "Feature", "properties": { "nombre": "7 Delicatessen", "actividad": "restaurante", "municipio": "La Laguna", "direccion": "Herradores", "numero": "59", "direccion_completa": "Herradores, 59", "grupo_restauracion": "Restaurante", "peso_inicial": 5.0 }, "geometry": { "type": "Point", "coordinates": [ -16.31756633, 28.48842494 ] } },
{ "type": "Feature", "properties": { "nombre": "7 Vies", "actividad": "bar cafeteria", "municipio": "La Laguna", "direccion": "San Agustin", "numero": "11", "direccion_completa": "San Agustin, 11", "grupo_restauracion": "Local_Tapeo", "peso_inicial": 5.0 }, "geometry": { "type": "Point", "coordinates": [ -16.314496, 28.48927599 ] } },
{ "type": "Feature", "properties": { "nombre": "888 Gastro Bar", "actividad": "bar", "municipio": "Arona", "direccion": "Antonio Dominguez Alfonso", "numero": "16", "direccion_completa": "Antonio Dominguez Alfonso, 16", "grupo_restauracion": "Local_Tapeo", "peso_inicial": 5.0 }, "geometry": { "type": "Point", "coordinates": [ -16.7246667, 28.05628498 ] } },
{ "type": "Feature", "properties": { "nombre": "A Guardian", "actividad": "bar", "municipio": "Adeje", "direccion": "Colon", "numero": "5", "direccion_completa": "Colon, 5", "grupo_restauracion": "Local_Tapeo", "peso_inicial": 5.0 }, "geometry": { "type": "Point", "coordinates": [ -16.73572194, 28.07881185 ] } },
{ "type": "Feature", "properties": { "nombre": "A L'areira", "actividad": "restaurante", "municipio": "Puerto de la Cruz", "direccion": "Luis Lavaggi", "numero": "2", "direccion_completa": "Luis Lavaggi, 2", "grupo_restauracion": "Restaurante", "peso_inicial": 5.0 }, "geometry": { "type": "Point", "coordinates": [ -16.55682688, 28.41544134 ] } },
{ "type": "Feature", "properties": { "nombre": "A Nosa Terra", "actividad": "restaurante", "municipio": "Puerto de la Cruz", "direccion": "Puerto Viejo", "numero": "18", "direccion_completa": "Puerto Viejo, 18", "grupo_restauracion": "Restaurante", "peso_inicial": 5.0 }, "geometry": { "type": "Point", "coordinates": [ -16.55241455, 28.41595498 ] } },
{ "type": "Feature", "properties": { "nombre": "A24 Horas", "actividad": "bar cafeteria", "municipio": "Santa Cruz de Tenerife", "direccion": "Unamuno", "numero": "2", "direccion_completa": "Unamuno, 2", "grupo_restauracion": "Local_Tapeo", "peso_inicial": 5.0 }, "geometry": { "type": "Point", "coordinates": [ -16.26432014, 28.46255708 ] } },
{ "type": "Feature", "properties": { "nombre": "AA VV Maninindra", "actividad": "bar cafeteria", "municipio": "La Orotava", "direccion": "Guanche", "numero": "47", "direccion_completa": "Guanche, 47", "grupo_restauracion": "Local_Tapeo", "peso_inicial": 5.0 }, "geometry": { "type": "Point", "coordinates": [ -16.5046643, 28.39050247 ] } },
{ "type": "Feature", "properties": { "nombre": "Aaron", "actividad": "bar", "municipio": "Santa Cruz de Tenerife", "direccion": "Principes de España", "numero": "10", "direccion_completa": "Principes de España, 10", "grupo_restauracion": "Local_Tapeo", "peso_inicial": 5.0 }, "geometry": { "type": "Point", "coordinates": [ -16.28561666, 28.45270344 ] } },
{ "type": "Feature", "properties": { "nombre": "Abaco", "actividad": "restaurante", "municipio": "Puerto de la Cruz", "direccion": "Casa Grande", "numero": "11", "direccion_completa": "Casa Grande, 11", "grupo_restauracion": "Restaurante", "peso_inicial": 5.0 }, "geometry": { "type": "Point", "coordinates": [ -16.53297902, 28.40576352 ] } },
{ "type": "Feature", "properties": { "nombre": "Abades", "actividad": "restaurante", "municipio": "Arico", "direccion": "16 de Mayo", "numero": "3", "direccion_completa": "16 de Mayo, 3", "grupo_restauracion": "Restaurante", "peso_inicial": 5.0 }, "geometry": { "type": "Point", "coordinates": [ -16.44133923, 28.14185919 ] } },
{ "type": "Feature", "properties": { "nombre": "Abbey Road", "actividad": "bar", "municipio": "Arona", "direccion": "Rafael Puig Lluvina", "numero": "10", "direccion_completa": "Rafael Puig Lluvina, 10", "grupo_restauracion": "Local_Tapeo", "peso_inicial": 5.0 }, "geometry": { "type": "Point", "coordinates": [ -16.73179962, 28.06501395 ] } },
{ "type": "Feature", "properties": { "nombre": "Abbos Chippy", "actividad": "bar", "municipio": "Arona", "direccion": "Jose Antonio Tavio Afonso", "numero": "39", "direccion_completa": "Jose Antonio Tavio Afonso, 39", "grupo_restauracion": "Local_Tapeo", "peso_inicial": 5.0 }, "geometry": { "type": "Point", "coordinates": [ -16.64238328, 28.01138806 ] } },
{ "type": "Feature", "properties": { "nombre": "Abedul Beriozka", "actividad": "restaurante", "municipio": "Arona", "direccion": "Montaña Chica", "numero": "5", "direccion_completa": "Montaña Chica, 5", "grupo_restauracion": "Restaurante", "peso_inicial": 5.0 }, "geometry": { "type": "Point", "coordinates": [ -16.71580522, 28.05409855 ] } },
{ "type": "Feature", "properties": { "nombre": "Aberdeen", "actividad": "restaurante", "municipio": "Adeje", "direccion": "Gran Bretaña", "numero": "10", "direccion_completa": "Gran Bretaña, 10", "grupo_restauracion": "Restaurante", "peso_inicial": 5.0 }, "geometry": { "type": "Point", "coordinates": [ -16.73457787, 28.07631233 ] } },
{ "type": "Feature", "properties": { "nombre": "Aberdeen El Dorado", "actividad": "bar cafeteria", "municipio": "Arona", "direccion": "Santiago Puig", "numero": "5", "direccion_completa": "Santiago Puig, 5", "grupo_restauracion": "Local_Tapeo", "peso_inicial": 5.0 }, "geometry": { "type": "Point", "coordinates": [ -16.72830471, 28.06192106 ] } },
{ "type": "Feature", "properties": { "nombre": "Aberdeen Steak House", "actividad": "restaurante", "municipio": "San Miguel", "direccion": "Jose Miguel Galvan Bello", "numero": "0", "direccion_completa": "Jose Miguel Galvan Bello, 0", "grupo_restauracion": "Restaurante", "peso_inicial": 5.0 }, "geometry": { "type": "Point", "coordinates": [ -16.60648482, 28.02747219 ] } },
{ "type": "Feature", "properties": { "nombre": "Aberdeen Steak House", "actividad": "restaurante", "municipio": "Adeje", "direccion": "Londres", "numero": "5", "direccion_completa": "Londres, 5", "grupo_restauracion": "Restaurante", "peso_inicial": 5.0 }, "geometry": { "type": "Point", "coordinates": [ -16.73511719, 28.08650184 ] } },
{ "type": "Feature", "properties": { "nombre": "Aberdeen Steak House", "actividad": "restaurante", "municipio": "Santiago del Teide", "direccion": "La Hondura", "numero": "11", "direccion_completa": "La Hondura, 11", "grupo_restauracion": "Restaurante", "peso_inicial": 5.0 }, "geometry": { "type": "Point", "coordinates": [ -16.84437433, 28.23892713 ] } },
{ "type": "Feature", "properties": { "nombre": "Aberdeen Steak House", "actividad": "restaurante", "municipio": "Arona", "direccion": "Luis Diaz de Losada", "numero": "5", "direccion_completa": "Luis Diaz de Losada, 5", "grupo_restauracion": "Restaurante", "peso_inicial": 5.0 }, "geometry": { "type": "Point", "coordinates": [ -16.72919706, 28.05266041 ] } },
{ "type": "Feature", "properties": { "nombre": "Aberdeen Steak House", "actividad": "restaurante", "municipio": "Adeje", "direccion": "Ernesto Sarti", "numero": "10", "direccion_completa": "Ernesto Sarti, 10", "grupo_restauracion": "Restaurante", "peso_inicial": 5.0 }, "geometry": { "type": "Point", "coordinates": [ -16.73258641, 28.08439745 ] } },
{ "type": "Feature", "properties": { "nombre": "Aberdeen Steak House", "actividad": "restaurante", "municipio": "Arona", "direccion": "Santiago Puig", "numero": "5", "direccion_completa": "Santiago Puig, 5", "grupo_restauracion": "Restaurante", "peso_inicial": 5.0 }, "geometry": { "type": "Point", "coordinates": [ -16.72815236, 28.0620701 ] } },
{ "type": "Feature", "properties": { "nombre": "Aberdeen Steak House", "actividad": "restaurante", "municipio": "Arona", "direccion": "Santiago Puig", "numero": "1", "direccion_completa": "Santiago Puig, 1", "grupo_restauracion": "Restaurante", "peso_inicial": 5.0 }, "geometry": { "type": "Point", "coordinates": [ -16.72984455, 28.06246738 ] } },
{ "type": "Feature", "properties": { "nombre": "Aberdeen Steak House", "actividad": "restaurante", "municipio": "Arona", "direccion": "Rafael Puig Lluvina", "numero": "28", "direccion_completa": "Rafael Puig Lluvina, 28", "grupo_restauracion": "Restaurante", "peso_inicial": 5.0 }, "geometry": { "type": "Point", "coordinates": [ -16.73266383, 28.06091659 ] } },
{ "type": "Feature", "properties": { "nombre": "Aberdeen Steak House", "actividad": "restaurante", "municipio": "Adeje", "direccion": "Los Pueblos", "numero": "26", "direccion_completa": "Los Pueblos, 26", "grupo_restauracion": "Restaurante", "peso_inicial": 5.0 }, "geometry": { "type": "Point", "coordinates": [ -16.73026384, 28.0794923 ] } },
{ "type": "Feature", "properties": { "nombre": "Aberdeen Steak House", "actividad": "restaurante", "municipio": "Adeje", "direccion": "España", "numero": "10", "direccion_completa": "España, 10", "grupo_restauracion": "Restaurante", "peso_inicial": 5.0 }, "geometry": { "type": "Point", "coordinates": [ -16.73265779, 28.08149476 ] } },
{ "type": "Feature", "properties": { "nombre": "Abian", "actividad": "restaurante", "municipio": "Arona", "direccion": "General TF 66 Cruz del Guanche Guaza", "numero": "373", "direccion_completa": "General TF 66 Cruz del Guanche Guaza, 373", "grupo_restauracion": "Restaurante", "peso_inicial": 5.0 }, "geometry": { "type": "Point", "coordinates": [ -16.66614153, 28.06203479 ] } },
{ "type": "Feature", "properties": { "nombre": "Abigail", "actividad": "bar", "municipio": "Santa Cruz de Tenerife", "direccion": "Taborno", "numero": "27", "direccion_completa": "Taborno, 27", "grupo_restauracion": "Local_Tapeo", "peso_inicial": 5.0 }, "geometry": { "type": "Point", "coordinates": [ -16.26465754, 28.55790501 ] } },
{ "type": "Feature", "properties": { "nombre": "Abona", "actividad": "bar cafeteria", "municipio": "Granadilla de Abona", "direccion": "Abona", "numero": "16", "direccion_completa": "Abona, 16", "grupo_restauracion": "Local_Tapeo", "peso_inicial": 5.0 }, "geometry": { "type": "Point", "coordinates": [ -16.561648, 28.08390099 ] } },
{ "type": "Feature", "properties": { "nombre": "Abora", "actividad": "restaurante pizzeria", "municipio": "Arona", "direccion": "Ramujo", "numero": "2", "direccion_completa": "Ramujo, 2", "grupo_restauracion": "Restaurante", "peso_inicial": 5.0 }, "geometry": { "type": "Point", "coordinates": [ -16.67336584, 28.07466141 ] } },
{ "type": "Feature", "properties": { "nombre": "Abora Burger", "actividad": "bar", "municipio": "La Laguna", "direccion": "Alfredo Torres Edwards", "numero": "44", "direccion_completa": "Alfredo Torres Edwards, 44", "grupo_restauracion": "Local_Tapeo", "peso_inicial": 5.0 }, "geometry": { "type": "Point", "coordinates": [ -16.31734318, 28.48526122 ] } },
{ "type": "Feature", "properties": { "nombre": "Abora I", "actividad": "restaurante", "municipio": "Arona", "direccion": "Juan Alfonso Batista", "numero": "9", "direccion_completa": "Juan Alfonso Batista, 9", "grupo_restauracion": "Restaurante", "peso_inicial": 5.0 }, "geometry": { "type": "Point", "coordinates": [ -16.71614528, 28.05071135 ] } },
{ "type": "Feature", "properties": { "nombre": "Abora II", "actividad": "restaurante", "municipio": "Arona", "direccion": "Juan Alfonso Batista", "numero": "9", "direccion_completa": "Juan Alfonso Batista, 9", "grupo_restauracion": "Restaurante", "peso_inicial": 5.0 }, "geometry": { "type": "Point", "coordinates": [ -16.71625571, 28.05070243 ] } },
{ "type": "Feature", "properties": { "nombre": "Abora II", "actividad": "bar", "municipio": "Arona", "direccion": "Ramona Martin Artista", "numero": "1", "direccion_completa": "Ramona Martin Artista, 1", "grupo_restauracion": "Local_Tapeo", "peso_inicial": 5.0 }, "geometry": { "type": "Point", "coordinates": [ -16.72539848, 28.0553788 ] } },
{ "type": "Feature", "properties": { "nombre": "Abordo", "actividad": "restaurante", "municipio": "Arona", "direccion": "Juan Bariajo", "numero": "6", "direccion_completa": "Juan Bariajo, 6", "grupo_restauracion": "Restaurante", "peso_inicial": 5.0 }, "geometry": { "type": "Point", "coordinates": [ -16.71987152, 28.05023198 ] } },
{ "type": "Feature", "properties": { "nombre": "Aborigen", "actividad": "guachinche", "municipio": "El Sauzal", "direccion": "Real Orotava", "numero": "222", "direccion_completa": "Real Orotava, 222", "grupo_restauracion": "Local_Tapeo", "peso_inicial": 5.0 }, "geometry": { "type": "Point", "coordinates": [ -16.42740259, 28.46112122 ] } },
{ "type": "Feature", "properties": { "nombre": "Abreu", "actividad": "restaurante tasca", "municipio": "El Sauzal", "direccion": "San Cristobal", "numero": "41", "direccion_completa": "San Cristobal, 41", "grupo_restauracion": "Local_Tapeo", "peso_inicial": 5.0 }, "geometry": { "type": "Point", "coordinates": [ -16.418242, 28.45842899 ] } },
{ "type": "Feature", "properties": { "nombre": "Abreu", "actividad": "restaurante", "municipio": "Santa Úrsula", "direccion": "Provincial TF 217", "numero": "13", "direccion_completa": "Provincial TF 217, 13", "grupo_restauracion": "Restaurante", "peso_inicial": 5.0 }, "geometry": { "type": "Point", "coordinates": [ -16.49286614, 28.42495794 ] } },
{ "type": "Feature", "properties": { "nombre": "Abreu", "actividad": "bar cafeteria", "municipio": "Los Silos", "direccion": "General TF 82 Icod Guia de Isora", "numero": "6", "direccion_completa": "General TF 82 Icod Guia de Isora, 6", "grupo_restauracion": "Local_Tapeo", "peso_inicial": 5.0 }, "geometry": { "type": "Point", "coordinates": [ -16.80605472, 28.32669688 ] } },
{ "type": "Feature", "properties": { "nombre": "Absolutely Fabulous", "actividad": "restaurante", "municipio": "Adeje", "direccion": "Eugenio Dominguez Alfonso", "numero": "1", "direccion_completa": "Eugenio Dominguez Alfonso, 1", "grupo_restauracion": "Restaurante", "peso_inicial": 5.0 }, "geometry": { "type": "Point", "coordinates": [ -16.73205615, 28.0731776 ] } },
{ "type": "Feature", "properties": { "nombre": "Abuelo Pancho", "actividad": "restaurante", "municipio": "La Orotava", "direccion": "Cuesta de la Perdoma", "numero": "63", "direccion_completa": "Cuesta de la Perdoma, 63", "grupo_restauracion": "Restaurante", "peso_inicial": 5.0 }, "geometry": { "type": "Point", "coordinates": [ -16.54630344, 28.37823741 ] } },
{ "type": "Feature", "properties": { "nombre": "Abydos", "actividad": "cafeteria", "municipio": "Arona", "direccion": "Rafael Puig Lluvina", "numero": "28", "direccion_completa": "Rafael Puig Lluvina, 28", "grupo_restauracion": "Cafe", "peso_inicial": 5.0 }, "geometry": { "type": "Point", "coordinates": [ -16.73261433, 28.06116395 ] } },
{ "type": "Feature", "properties": { "nombre": "Acanto Tapas", "actividad": "restaurante", "municipio": "Adeje", "direccion": "Bruselas", "numero": "0", "direccion_completa": "Bruselas, 0", "grupo_restauracion": "Restaurante", "peso_inicial": 5.0 }, "geometry": { "type": "Point", "coordinates": [ -16.74412886, 28.09215911 ] } },
{ "type": "Feature", "properties": { "nombre": "Acapulco", "actividad": "restaurante", "municipio": "Adeje", "direccion": "Cuba", "numero": "2", "direccion_completa": "Cuba, 2", "grupo_restauracion": "Restaurante", "peso_inicial": 5.0 }, "geometry": { "type": "Point", "coordinates": [ -16.73074364, 28.07259179 ] } },
{ "type": "Feature", "properties": { "nombre": "Acapulco", "actividad": "bar", "municipio": "Adeje", "direccion": "Cuba", "numero": "2", "direccion_completa": "Cuba, 2", "grupo_restauracion": "Local_Tapeo", "peso_inicial": 5.0 }, "geometry": { "type": "Point", "coordinates": [ -16.73066826, 28.07258902 ] } },
{ "type": "Feature", "properties": { "nombre": "Acapulco", "actividad": "bar", "municipio": "Adeje", "direccion": "El Jable", "numero": "47", "direccion_completa": "El Jable, 47", "grupo_restauracion": "Local_Tapeo", "peso_inicial": 5.0 }, "geometry": { "type": "Point", "coordinates": [ -16.78282654, 28.12876967 ] } },
{ "type": "Feature", "properties": { "nombre": "Acaymo", "actividad": "restaurante", "municipio": "La Laguna", "direccion": "General TF 152 Norte", "numero": "178", "direccion_completa": "General TF 152 Norte, 178", "grupo_restauracion": "Restaurante", "peso_inicial": 5.0 }, "geometry": { "type": "Point", "coordinates": [ -16.36969379, 28.49243074 ] } },
{ "type": "Feature", "properties": { "nombre": "Acaymo", "actividad": "bar cafeteria", "municipio": "Santa Cruz de Tenerife", "direccion": "Mencey Acaymo", "numero": "1", "direccion_completa": "Mencey Acaymo, 1", "grupo_restauracion": "Local_Tapeo", "peso_inicial": 5.0 }, "geometry": { "type": "Point", "coordinates": [ -16.27275601, 28.46922162 ] } },
{ "type": "Feature", "properties": { "nombre": "Acentejo", "actividad": "restaurante", "municipio": "La Victoria", "direccion": "Acentejo", "numero": "30", "direccion_completa": "Acentejo, 30", "grupo_restauracion": "Restaurante", "peso_inicial": 5.0 }, "geometry": { "type": "Point", "coordinates": [ -16.45955569, 28.4377822 ] } },
{ "type": "Feature", "properties": { "nombre": "Acentejo", "actividad": "bar cafeteria", "municipio": "La Victoria", "direccion": "Vieja TF 213", "numero": "170", "direccion_completa": "Vieja TF 213, 170", "grupo_restauracion": "Local_Tapeo", "peso_inicial": 5.0 }, "geometry": { "type": "Point", "coordinates": [ -16.48280559, 28.43024705 ] } },
{ "type": "Feature", "properties": { "nombre": "Acojeja", "actividad": "restaurante", "municipio": "Granadilla de Abona", "direccion": "Brocal", "numero": "11", "direccion_completa": "Brocal, 11", "grupo_restauracion": "Restaurante", "peso_inicial": 5.0 }, "geometry": { "type": "Point", "coordinates": [ -16.57696106, 28.11454287 ] } },
{ "type": "Feature", "properties": { "nombre": "Acorde", "actividad": "bar cafeteria", "municipio": "Arona", "direccion": "Fernando Salazar Gonzalez", "numero": "11", "direccion_completa": "Fernando Salazar Gonzalez, 11", "grupo_restauracion": "Local_Tapeo", "peso_inicial": 5.0 }, "geometry": { "type": "Point", "coordinates": [ -16.65327889, 28.00886519 ] } },
{ "type": "Feature", "properties": { "nombre": "Acropolis", "actividad": "restaurante", "municipio": "Adeje", "direccion": "Rafael Puig Lluvina", "numero": "5", "direccion_completa": "Rafael Puig Lluvina, 5", "grupo_restauracion": "Restaurante", "peso_inicial": 5.0 }, "geometry": { "type": "Point", "coordinates": [ -16.73206912, 28.07073949 ] } },
{ "type": "Feature", "properties": { "nombre": "Acropolis Carpa", "actividad": "bar", "municipio": "Candelaria", "direccion": "Maritima", "numero": "206", "direccion_completa": "Maritima, 206", "grupo_restauracion": "Local_Tapeo", "peso_inicial": 5.0 }, "geometry": { "type": "Point", "coordinates": [ -16.36183828, 28.38270585 ] } },
{ "type": "Feature", "properties": { "nombre": "Acuario", "actividad": "bar cafeteria", "municipio": "La Laguna", "direccion": "El Juego", "numero": "17", "direccion_completa": "El Juego, 17", "grupo_restauracion": "Local_Tapeo", "peso_inicial": 5.0 }, "geometry": { "type": "Point", "coordinates": [ -16.31709587, 28.48685627 ] } },
{ "type": "Feature", "properties": { "nombre": "Acuario", "actividad": "bar", "municipio": "Tacoronte", "direccion": "General TF 152 Norte", "numero": "100", "direccion_completa": "General TF 152 Norte, 100", "grupo_restauracion": "Local_Tapeo", "peso_inicial": 5.0 }, "geometry": { "type": "Point", "coordinates": [ -16.41282592, 28.47726116 ] } },
{ "type": "Feature", "properties": { "nombre": "Acuario", "actividad": "restaurante", "municipio": "Santa Úrsula", "direccion": "Guanches", "numero": "76", "direccion_completa": "Guanches, 76", "grupo_restauracion": "Restaurante", "peso_inicial": 5.0 }, "geometry": { "type": "Point", "coordinates": [ -16.4930213, 28.41546961 ] } },
{ "type": "Feature", "properties": { "nombre": "Acuarius Rallye", "actividad": "bar", "municipio": "Santiago del Teide", "direccion": "Coronel Gorrin", "numero": "15", "direccion_completa": "Coronel Gorrin, 15", "grupo_restauracion": "Local_Tapeo", "peso_inicial": 5.0 }, "geometry": { "type": "Point", "coordinates": [ -16.81848726, 28.2671282 ] } },
{ "type": "Feature", "properties": { "nombre": "Achaman", "actividad": "pub", "municipio": "Adeje", "direccion": "Helsinki", "numero": "0", "direccion_completa": "Helsinki, 0", "grupo_restauracion": "Nocturno", "peso_inicial": 5.0 }, "geometry": { "type": "Point", "coordinates": [ -16.73021285, 28.09163631 ] } },
{ "type": "Feature", "properties": { "nombre": "Achaman", "actividad": "discoteca club", "municipio": "Adeje", "direccion": "Ernesto Sarti", "numero": "12", "direccion_completa": "Ernesto Sarti, 12", "grupo_restauracion": "Nocturno", "peso_inicial": 5.0 }, "geometry": { "type": "Point", "coordinates": [ -16.73198684, 28.08481351 ] } },
{ "type": "Feature", "properties": { "nombre": "Ache Pa'Ti", "actividad": "bar", "municipio": "La Laguna", "direccion": "TF 5 Santa Cruz La Laguna", "numero": "7", "direccion_completa": "TF 5 Santa Cruz La Laguna, 7", "grupo_restauracion": "Local_Tapeo", "peso_inicial": 5.0 }, "geometry": { "type": "Point", "coordinates": [ -16.30575024, 28.46274811 ] } },
{ "type": "Feature", "properties": { "nombre": "Achimaye", "actividad": "restaurante", "municipio": "Guía de Isora", "direccion": "La Gorrina", "numero": "2", "direccion_completa": "La Gorrina, 2", "grupo_restauracion": "Restaurante", "peso_inicial": 5.0 }, "geometry": { "type": "Point", "coordinates": [ -16.76551659, 28.18690522 ] } },
{ "type": "Feature", "properties": { "nombre": "Adan", "actividad": "bar cafeteria", "municipio": "La Laguna", "direccion": "La Hornera", "numero": "82", "direccion_completa": "La Hornera, 82", "grupo_restauracion": "Local_Tapeo", "peso_inicial": 5.0 }, "geometry": { "type": "Point", "coordinates": [ -16.30790975, 28.47156522 ] } },
{ "type": "Feature", "properties": { "nombre": "Aday", "actividad": "restaurante", "municipio": "Santa Cruz de Tenerife", "direccion": "Juan Rumeu Garcia", "numero": "3", "direccion_completa": "Juan Rumeu Garcia, 3", "grupo_restauracion": "Restaurante", "peso_inicial": 5.0 }, "geometry": { "type": "Point", "coordinates": [ -16.27382748, 28.46501224 ] } },
{ "type": "Feature", "properties": { "nombre": "Adeje Cafe", "actividad": "cafeteria", "municipio": "Adeje", "direccion": "España", "numero": "4", "direccion_completa": "España, 4", "grupo_restauracion": "Cafe", "peso_inicial": 5.0 }, "geometry": { "type": "Point", "coordinates": [ -16.73338986, 28.0796254 ] } },
{ "type": "Feature", "properties": { "nombre": "Adeje Chicken", "actividad": "restaurante", "municipio": "Arona", "direccion": "Puerto Rico", "numero": "284", "direccion_completa": "Puerto Rico, 284", "grupo_restauracion": "Restaurante", "peso_inicial": 5.0 }, "geometry": { "type": "Point", "coordinates": [ -16.66124508, 28.06926074 ] } },
{ "type": "Feature", "properties": { "nombre": "Adeje Paradise", "actividad": "bar cafeteria", "municipio": "Adeje", "direccion": "Adeje 300", "numero": "30", "direccion_completa": "Adeje 300, 30", "grupo_restauracion": "Local_Tapeo", "peso_inicial": 5.0 }, "geometry": { "type": "Point", "coordinates": [ -16.77129683, 28.12073957 ] } },
{ "type": "Feature", "properties": { "nombre": "Adico", "actividad": "restaurante", "municipio": "Adeje", "direccion": "El Jable", "numero": "47", "direccion_completa": "El Jable, 47", "grupo_restauracion": "Restaurante", "peso_inicial": 5.0 }, "geometry": { "type": "Point", "coordinates": [ -16.78294427, 28.12876273 ] } },
{ "type": "Feature", "properties": { "nombre": "ADK", "actividad": "bar cafeteria", "municipio": "Santa Cruz de Tenerife", "direccion": "Manuel Hermoso Rojas", "numero": "16", "direccion_completa": "Manuel Hermoso Rojas, 16", "grupo_restauracion": "Local_Tapeo", "peso_inicial": 5.0 }, "geometry": { "type": "Point", "coordinates": [ -16.25904354, 28.45695144 ] } },
{ "type": "Feature", "properties": { "nombre": "ADK Abbasid Doner Kebab", "actividad": "cafeteria", "municipio": "Santa Cruz de Tenerife", "direccion": "Imeldo Seris", "numero": "54", "direccion_completa": "Imeldo Seris, 54", "grupo_restauracion": "Cafe", "peso_inicial": 5.0 }, "geometry": { "type": "Point", "coordinates": [ -16.25096268, 28.4664164 ] } },
{ "type": "Feature", "properties": { "nombre": "Adolfo", "actividad": "bar", "municipio": "El Rosario", "direccion": "La Ermiita", "numero": "2", "direccion_completa": "La Ermiita, 2", "grupo_restauracion": "Local_Tapeo", "peso_inicial": 5.0 }, "geometry": { "type": "Point", "coordinates": [ -16.33880627, 28.41840776 ] } },
{ "type": "Feature", "properties": { "nombre": "Advans", "actividad": "bar cafeteria", "municipio": "Puerto de la Cruz", "direccion": "Benjamin J Miranda", "numero": "1", "direccion_completa": "Benjamin J Miranda, 1", "grupo_restauracion": "Local_Tapeo", "peso_inicial": 5.0 }, "geometry": { "type": "Point", "coordinates": [ -16.548648, 28.41636799 ] } },
{ "type": "Feature", "properties": { "nombre": "Africa Gastrobar", "actividad": "bar cafeteria", "municipio": "Puerto de la Cruz", "direccion": "Agustin de Betancourt", "numero": "3", "direccion_completa": "Agustin de Betancourt, 3", "grupo_restauracion": "Local_Tapeo", "peso_inicial": 5.0 }, "geometry": { "type": "Point", "coordinates": [ -16.54956135, 28.41741312 ] } },
{ "type": "Feature", "properties": { "nombre": "Africa Loungue Cafe", "actividad": "bar cafeteria", "municipio": "Santa Úrsula", "direccion": "Provincial TF 217", "numero": "52", "direccion_completa": "Provincial TF 217, 52", "grupo_restauracion": "Local_Tapeo", "peso_inicial": 5.0 }, "geometry": { "type": "Point", "coordinates": [ -16.49663786, 28.42442885 ] } },
{ "type": "Feature", "properties": { "nombre": "Africano", "actividad": "bar cafeteria zumeria", "municipio": "Puerto de la Cruz", "direccion": "Loro Parque", "numero": "3", "direccion_completa": "Loro Parque, 3", "grupo_restauracion": "Local_Tapeo", "peso_inicial": 5.0 }, "geometry": { "type": "Point", "coordinates": [ -16.56389002, 28.40966821 ] } },
{ "type": "Feature", "properties": { "nombre": "After Dark", "actividad": "bar", "municipio": "Puerto de la Cruz", "direccion": "Marques Villanueva del Prado", "numero": "28", "direccion_completa": "Marques Villanueva del Prado, 28", "grupo_restauracion": "Local_Tapeo", "peso_inicial": 5.0 }, "geometry": { "type": "Point", "coordinates": [ -16.53668467, 28.41063338 ] } },
{ "type": "Feature", "properties": { "nombre": "After Wok Plaza", "actividad": "bar cafeteria", "municipio": "Arona", "direccion": "Teneguia", "numero": "2", "direccion_completa": "Teneguia, 2", "grupo_restauracion": "Local_Tapeo", "peso_inicial": 5.0 }, "geometry": { "type": "Point", "coordinates": [ -16.73220247, 28.05724855 ] } },
{ "type": "Feature", "properties": { "nombre": "After Work", "actividad": "bar cafeteria", "municipio": "La Laguna", "direccion": "Teide", "numero": "2", "direccion_completa": "Teide, 2", "grupo_restauracion": "Local_Tapeo", "peso_inicial": 5.0 }, "geometry": { "type": "Point", "coordinates": [ -16.316887, 28.48778999 ] } },
{ "type": "Feature", "properties": { "nombre": "Agis 84", "actividad": "bar", "municipio": "Santa Cruz de Tenerife", "direccion": "General TF 28 Sur", "numero": "11", "direccion_completa": "General TF 28 Sur, 11", "grupo_restauracion": "Local_Tapeo", "peso_inicial": 5.0 }, "geometry": { "type": "Point", "coordinates": [ -16.30101674, 28.44334781 ] } },
{ "type": "Feature", "properties": { "nombre": "Agora", "actividad": "restaurante", "municipio": "San Miguel", "direccion": "La Valeria", "numero": "1", "direccion_completa": "La Valeria, 1", "grupo_restauracion": "Restaurante", "peso_inicial": 5.0 }, "geometry": { "type": "Point", "coordinates": [ -16.62823767, 28.06729478 ] } },
{ "type": "Feature", "properties": { "nombre": "Agora", "actividad": "bar cafeteria", "municipio": "Puerto de la Cruz", "direccion": "Benito Perez Galdos", "numero": "6", "direccion_completa": "Benito Perez Galdos, 6", "grupo_restauracion": "Local_Tapeo", "peso_inicial": 5.0 }, "geometry": { "type": "Point", "coordinates": [ -16.55401937, 28.41723467 ] } },
{ "type": "Feature", "properties": { "nombre": "Agora Cafe Bar", "actividad": "bar cafeteria", "municipio": "Santa Úrsula", "direccion": "España TF 217", "numero": "14", "direccion_completa": "España TF 217, 14", "grupo_restauracion": "Local_Tapeo", "peso_inicial": 5.0 }, "geometry": { "type": "Point", "coordinates": [ -16.4907475, 28.42523908 ] } },
{ "type": "Feature", "properties": { "nombre": "Agricola", "actividad": "restaurante", "municipio": "Candelaria", "direccion": "General TF 28 Sur", "numero": "47", "direccion_completa": "General TF 28 Sur, 47", "grupo_restauracion": "Restaurante", "peso_inicial": 5.0 }, "geometry": { "type": "Point", "coordinates": [ -16.36481361, 28.384382 ] } },
{ "type": "Feature", "properties": { "nombre": "Agromercado", "actividad": "bar cafeteria", "municipio": "Adeje", "direccion": "Archajara", "numero": "0", "direccion_completa": "Archajara, 0", "grupo_restauracion": "Local_Tapeo", "peso_inicial": 5.0 }, "geometry": { "type": "Point", "coordinates": [ -16.73869354, 28.12774441 ] } },
{ "type": "Feature", "properties": { "nombre": "Agua Cafe", "actividad": "bar cafeteria", "municipio": "Granadilla de Abona", "direccion": "Nuestra Señora Mercedes de Roja", "numero": "20", "direccion_completa": "Nuestra Señora Mercedes de Roja, 20", "grupo_restauracion": "Local_Tapeo", "peso_inicial": 5.0 }, "geometry": { "type": "Point", "coordinates": [ -16.53978, 28.04358829 ] } },
{ "type": "Feature", "properties": { "nombre": "Agua de Coco", "actividad": "restaurante", "municipio": "Arona", "direccion": "La Habana", "numero": "11", "direccion_completa": "La Habana, 11", "grupo_restauracion": "Restaurante", "peso_inicial": 5.0 }, "geometry": { "type": "Point", "coordinates": [ -16.72237697, 28.05189487 ] } },
{ "type": "Feature", "properties": { "nombre": "Agua Dulce", "actividad": "bar cafeteria", "municipio": "Granadilla de Abona", "direccion": "Los Abrigos", "numero": "46", "direccion_completa": "Los Abrigos, 46", "grupo_restauracion": "Local_Tapeo", "peso_inicial": 5.0 }, "geometry": { "type": "Point", "coordinates": [ -16.59029932, 28.02995111 ] } },
{ "type": "Feature", "properties": { "nombre": "Aguabuey", "actividad": "restaurante", "municipio": "Granadilla de Abona", "direccion": "Chasna", "numero": "1", "direccion_completa": "Chasna, 1", "grupo_restauracion": "Restaurante", "peso_inicial": 5.0 }, "geometry": { "type": "Point", "coordinates": [ -16.57825751, 28.1191353 ] } },
{ "type": "Feature", "properties": { "nombre": "Aguacate Laguna", "actividad": "bar", "municipio": "La Laguna", "direccion": "Cruz de Candelaria", "numero": "2", "direccion_completa": "Cruz de Candelaria, 2", "grupo_restauracion": "Local_Tapeo", "peso_inicial": 5.0 }, "geometry": { "type": "Point", "coordinates": [ -16.32236286, 28.48853159 ] } },
{ "type": "Feature", "properties": { "nombre": "Aguamansa", "actividad": "restaurante", "municipio": "La Orotava", "direccion": "General TF 21 Cuesta de la Villa Granadilla", "numero": "521", "direccion_completa": "General TF 21 Cuesta de la Villa Granadilla, 521", "grupo_restauracion": "Restaurante", "peso_inicial": 5.0 }, "geometry": { "type": "Point", "coordinates": [ -16.49814366, 28.36282563 ] } },
{ "type": "Feature", "properties": { "nombre": "Aguaviva", "actividad": "restaurante", "municipio": "Granadilla de Abona", "direccion": "Nuestra Señora Mercedes de Roja", "numero": "12", "direccion_completa": "Nuestra Señora Mercedes de Roja, 12", "grupo_restauracion": "Restaurante", "peso_inicial": 5.0 }, "geometry": { "type": "Point", "coordinates": [ -16.539286, 28.04399309 ] } },
{ "type": "Feature", "properties": { "nombre": "Aguere", "actividad": "bar cafeteria", "municipio": "La Laguna", "direccion": "Obispo Rey Redondo", "numero": "55", "direccion_completa": "Obispo Rey Redondo, 55", "grupo_restauracion": "Local_Tapeo", "peso_inicial": 5.0 }, "geometry": { "type": "Point", "coordinates": [ -16.318335, 28.48951499 ] } },
{ "type": "Feature", "properties": { "nombre": "Aguere", "actividad": "bar cafeteria", "municipio": "La Laguna", "direccion": "Alberto Einstein", "numero": "47", "direccion_completa": "Alberto Einstein, 47", "grupo_restauracion": "Local_Tapeo", "peso_inicial": 5.0 }, "geometry": { "type": "Point", "coordinates": [ -16.32708859, 28.49222053 ] } },
{ "type": "Feature", "properties": { "nombre": "Aguere Cafe", "actividad": "bar cafeteria", "municipio": "La Laguna", "direccion": "Herradores", "numero": "45", "direccion_completa": "Herradores, 45", "grupo_restauracion": "Local_Tapeo", "peso_inicial": 5.0 }, "geometry": { "type": "Point", "coordinates": [ -16.31689871, 28.48752869 ] } },
{ "type": "Feature", "properties": { "nombre": "Aguila", "actividad": "bar", "municipio": "Arona", "direccion": "Tinguafaya", "numero": "83", "direccion_completa": "Tinguafaya, 83", "grupo_restauracion": "Local_Tapeo", "peso_inicial": 5.0 }, "geometry": { "type": "Point", "coordinates": [ -16.69591882, 28.07725375 ] } },
{ "type": "Feature", "properties": { "nombre": "Aguilas del Teide", "actividad": "restaurante", "municipio": "Arona", "direccion": "Tinguafaya", "numero": "0", "direccion_completa": "Tinguafaya, 0", "grupo_restauracion": "Restaurante", "peso_inicial": 5.0 }, "geometry": { "type": "Point", "coordinates": [ -16.69534975, 28.07990517 ] } },
{ "type": "Feature", "properties": { "nombre": "Aguita", "actividad": "discoteca club", "municipio": "La Laguna", "direccion": "Doctor Antonio Gonzalez", "numero": "9", "direccion_completa": "Doctor Antonio Gonzalez, 9", "grupo_restauracion": "Nocturno", "peso_inicial": 5.0 }, "geometry": { "type": "Point", "coordinates": [ -16.31504411, 28.48399455 ] } },
{ "type": "Feature", "properties": { "nombre": "Aguita Salaa", "actividad": "bar", "municipio": "Puerto de la Cruz", "direccion": "Francisco Afonso Carrillo", "numero": "5", "direccion_completa": "Francisco Afonso Carrillo, 5", "grupo_restauracion": "Local_Tapeo", "peso_inicial": 5.0 }, "geometry": { "type": "Point", "coordinates": [ -16.55918392, 28.41169019 ] } },
{ "type": "Feature", "properties": { "nombre": "Agulo", "actividad": "restaurante", "municipio": "Santa Cruz de Tenerife", "direccion": "Hornero", "numero": "25", "direccion_completa": "Hornero, 25", "grupo_restauracion": "Restaurante", "peso_inicial": 5.0 }, "geometry": { "type": "Point", "coordinates": [ -16.30508407, 28.44245164 ] } },
{ "type": "Feature", "properties": { "nombre": "Agustin y Rosa", "actividad": "restaurante", "municipio": "Icod de los Vinos", "direccion": "San Sebastian", "numero": "15", "direccion_completa": "San Sebastian, 15", "grupo_restauracion": "Restaurante", "peso_inicial": 5.0 }, "geometry": { "type": "Point", "coordinates": [ -16.719682, 28.36720799 ] } },
{ "type": "Feature", "properties": { "nombre": "Aida", "actividad": "restaurante", "municipio": "Santa Cruz de Tenerife", "direccion": "El Carmen", "numero": "1", "direccion_completa": "El Carmen, 1", "grupo_restauracion": "Restaurante", "peso_inicial": 5.0 }, "geometry": { "type": "Point", "coordinates": [ -16.19277669, 28.50359019 ] } },
{ "type": "Feature", "properties": { "nombre": "Ainhoa", "actividad": "restaurante meson", "municipio": "Arona", "direccion": "Juan Carlos I", "numero": "21", "direccion_completa": "Juan Carlos I, 21", "grupo_restauracion": "Restaurante", "peso_inicial": 5.0 }, "geometry": { "type": "Point", "coordinates": [ -16.71242724, 28.0526284 ] } },
{ "type": "Feature", "properties": { "nombre": "Airam", "actividad": "bar cafeteria", "municipio": "La Laguna", "direccion": "Adelantado", "numero": "14", "direccion_completa": "Adelantado, 14", "grupo_restauracion": "Local_Tapeo", "peso_inicial": 5.0 }, "geometry": { "type": "Point", "coordinates": [ -16.3213553, 28.49109857 ] } },
{ "type": "Feature", "properties": { "nombre": "Aires del Sur", "actividad": "restaurante", "municipio": "Santiago del Teide", "direccion": "General TF 454 Puerto de Santiago", "numero": "31", "direccion_completa": "General TF 454 Puerto de Santiago, 31", "grupo_restauracion": "Restaurante", "peso_inicial": 5.0 }, "geometry": { "type": "Point", "coordinates": [ -16.82166617, 28.2627264 ] } },
{ "type": "Feature", "properties": { "nombre": "Aisha Tasca", "actividad": "restaurante tasca", "municipio": "Arico", "direccion": "10 de Agosto", "numero": "10", "direccion_completa": "10 de Agosto, 10", "grupo_restauracion": "Local_Tapeo", "peso_inicial": 5.0 }, "geometry": { "type": "Point", "coordinates": [ -16.44010634, 28.14306465 ] } },
{ "type": "Feature", "properties": { "nombre": "Aki Me Kedo", "actividad": "bar cafeteria", "municipio": "Güimar", "direccion": "General TF 525 Guimar Arafo", "numero": "28", "direccion_completa": "General TF 525 Guimar Arafo, 28", "grupo_restauracion": "Local_Tapeo", "peso_inicial": 5.0 }, "geometry": { "type": "Point", "coordinates": [ -16.413197, 28.33079099 ] } },
{ "type": "Feature", "properties": { "nombre": "Al's Carvery", "actividad": "restaurante", "municipio": "Arona", "direccion": "Noelia Afonso Cabrera", "numero": "1", "direccion_completa": "Noelia Afonso Cabrera, 1", "grupo_restauracion": "Restaurante", "peso_inicial": 5.0 }, "geometry": { "type": "Point", "coordinates": [ -16.7280446, 28.06123306 ] } },
{ "type": "Feature", "properties": { "nombre": "Al-Andalus", "actividad": "restaurante", "municipio": "La Laguna", "direccion": "El Peso", "numero": "1", "direccion_completa": "El Peso, 1", "grupo_restauracion": "Restaurante", "peso_inicial": 5.0 }, "geometry": { "type": "Point", "coordinates": [ -16.31814028, 28.4858659 ] } },
{ "type": "Feature", "properties": { "nombre": "Al Borgo 33", "actividad": "bar", "municipio": "Adeje", "direccion": "Grande", "numero": "33", "direccion_completa": "Grande, 33", "grupo_restauracion": "Local_Tapeo", "peso_inicial": 5.0 }, "geometry": { "type": "Point", "coordinates": [ -16.72482391, 28.12140806 ] } },
{ "type": "Feature", "properties": { "nombre": "Al fresco", "actividad": "bar cafeteria", "municipio": "Santa Cruz de Tenerife", "direccion": "Callao de Lima", "numero": "12", "direccion_completa": "Callao de Lima, 12", "grupo_restauracion": "Local_Tapeo", "peso_inicial": 5.0 }, "geometry": { "type": "Point", "coordinates": [ -16.25473254, 28.46845014 ] } },
{ "type": "Feature", "properties": { "nombre": "Al Gusto", "actividad": "cafeteria", "municipio": "Puerto de la Cruz", "direccion": "Aceviño", "numero": "12", "direccion_completa": "Aceviño, 12", "grupo_restauracion": "Cafe", "peso_inicial": 5.0 }, "geometry": { "type": "Point", "coordinates": [ -16.53420986, 28.41546293 ] } },
{ "type": "Feature", "properties": { "nombre": "Al Limite", "actividad": "bar", "municipio": "La Laguna", "direccion": "Heraclio Sanchez", "numero": "46", "direccion_completa": "Heraclio Sanchez, 46", "grupo_restauracion": "Local_Tapeo", "peso_inicial": 5.0 }, "geometry": { "type": "Point", "coordinates": [ -16.31652798, 28.48402879 ] } },
{ "type": "Feature", "properties": { "nombre": "Al N 10", "actividad": "bar cafeteria", "municipio": "Santa Cruz de Tenerife", "direccion": "Padre Anchieta", "numero": "10", "direccion_completa": "Padre Anchieta, 10", "grupo_restauracion": "Local_Tapeo", "peso_inicial": 5.0 }, "geometry": { "type": "Point", "coordinates": [ -16.25359099, 28.46386558 ] } },
{ "type": "Feature", "properties": { "nombre": "Al Pomodoro", "actividad": "restaurante", "municipio": "Granadilla de Abona", "direccion": "Arzobispo Jose Gonzalez Rivas", "numero": "28", "direccion_completa": "Arzobispo Jose Gonzalez Rivas, 28", "grupo_restauracion": "Restaurante", "peso_inicial": 5.0 }, "geometry": { "type": "Point", "coordinates": [ -16.560383, 28.07848299 ] } },
{ "type": "Feature", "properties": { "nombre": "Aladdin", "actividad": "bar cafeteria", "municipio": "La Laguna", "direccion": "Los Menceyes", "numero": "290", "direccion_completa": "Los Menceyes, 290", "grupo_restauracion": "Local_Tapeo", "peso_inicial": 5.0 }, "geometry": { "type": "Point", "coordinates": [ -16.28940417, 28.46878988 ] } },
{ "type": "Feature", "properties": { "nombre": "Aladins", "actividad": "bar", "municipio": "Arona", "direccion": "Mexico", "numero": "3", "direccion_completa": "Mexico, 3", "grupo_restauracion": "Local_Tapeo", "peso_inicial": 5.0 }, "geometry": { "type": "Point", "coordinates": [ -16.73370342, 28.06093462 ] } },
{ "type": "Feature", "properties": { "nombre": "Alajero", "actividad": "bar", "municipio": "La Laguna", "direccion": "San Alejandro", "numero": "2", "direccion_completa": "San Alejandro, 2", "grupo_restauracion": "Local_Tapeo", "peso_inicial": 5.0 }, "geometry": { "type": "Point", "coordinates": [ -16.30111744, 28.4545322 ] } },
{ "type": "Feature", "properties": { "nombre": "Alanda Tasca", "actividad": "restaurante tasca", "municipio": "Puerto de la Cruz", "direccion": "Francisco Afonso Carrillo", "numero": "5", "direccion_completa": "Francisco Afonso Carrillo, 5", "grupo_restauracion": "Local_Tapeo", "peso_inicial": 5.0 }, "geometry": { "type": "Point", "coordinates": [ -16.55939487, 28.41137864 ] } },
{ "type": "Feature", "properties": { "nombre": "Alayon", "actividad": "bar", "municipio": "Granadilla de Abona", "direccion": "La Marina", "numero": "1", "direccion_completa": "La Marina, 1", "grupo_restauracion": "Local_Tapeo", "peso_inicial": 5.0 }, "geometry": { "type": "Point", "coordinates": [ -16.59407598, 28.0289926 ] } },
{ "type": "Feature", "properties": { "nombre": "Alazan", "actividad": "bar", "municipio": "Santa Cruz de Tenerife", "direccion": "Alvarez de Lugo", "numero": "36", "direccion_completa": "Alvarez de Lugo, 36", "grupo_restauracion": "Local_Tapeo", "peso_inicial": 5.0 }, "geometry": { "type": "Point", "coordinates": [ -16.25805387, 28.46810489 ] } },
{ "type": "Feature", "properties": { "nombre": "Alazan", "actividad": "restaurante", "municipio": "Arona", "direccion": "Jesus Dominguez Grillo", "numero": "9", "direccion_completa": "Jesus Dominguez Grillo, 9", "grupo_restauracion": "Restaurante", "peso_inicial": 5.0 }, "geometry": { "type": "Point", "coordinates": [ -16.71996887, 28.05070698 ] } },
{ "type": "Feature", "properties": { "nombre": "Alba", "actividad": "cafeteria", "municipio": "Puerto de la Cruz", "direccion": "Pitera", "numero": "5", "direccion_completa": "Pitera, 5", "grupo_restauracion": "Cafe", "peso_inicial": 5.0 }, "geometry": { "type": "Point", "coordinates": [ -16.53901822, 28.41607728 ] } },
{ "type": "Feature", "properties": { "nombre": "Alba", "actividad": "bar cafeteria", "municipio": "Arona", "direccion": "Los Sabandeños", "numero": "6", "direccion_completa": "Los Sabandeños, 6", "grupo_restauracion": "Local_Tapeo", "peso_inicial": 5.0 }, "geometry": { "type": "Point", "coordinates": [ -16.71491991, 28.05446948 ] } },
{ "type": "Feature", "properties": { "nombre": "Albatros", "actividad": "restaurante", "municipio": "San Miguel", "direccion": "Atlantico", "numero": "4", "direccion_completa": "Atlantico, 4", "grupo_restauracion": "Restaurante", "peso_inicial": 5.0 }, "geometry": { "type": "Point", "coordinates": [ -16.61095484, 28.02651927 ] } },
{ "type": "Feature", "properties": { "nombre": "Albatros", "actividad": "restaurante buffet", "municipio": "Adeje", "direccion": "Adeje 300", "numero": "3", "direccion_completa": "Adeje 300, 3", "grupo_restauracion": "Restaurante", "peso_inicial": 5.0 }, "geometry": { "type": "Point", "coordinates": [ -16.77476107, 28.12117749 ] } },
{ "type": "Feature", "properties": { "nombre": "Albergue Montes de Anaga", "actividad": "bar cafeteria", "municipio": "Santa Cruz de Tenerife", "direccion": "General TF 123 Bailadero Chamorga", "numero": "0", "direccion_completa": "General TF 123 Bailadero Chamorga, 0", "grupo_restauracion": "Local_Tapeo", "peso_inicial": 5.0 }, "geometry": { "type": "Point", "coordinates": [ -16.20031828, 28.54989608 ] } },
{ "type": "Feature", "properties": { "nombre": "Alberto", "actividad": "bar", "municipio": "Arona", "direccion": "Arure", "numero": "3", "direccion_completa": "Arure, 3", "grupo_restauracion": "Local_Tapeo", "peso_inicial": 5.0 }, "geometry": { "type": "Point", "coordinates": [ -16.67788512, 28.0764492 ] } },
{ "type": "Feature", "properties": { "nombre": "Alberto", "actividad": "bar cafeteria", "municipio": "Arona", "direccion": "La Florida", "numero": "13", "direccion_completa": "La Florida, 13", "grupo_restauracion": "Local_Tapeo", "peso_inicial": 5.0 }, "geometry": { "type": "Point", "coordinates": [ -16.66930496, 28.0864198 ] } },
{ "type": "Feature", "properties": { "nombre": "Alberto's", "actividad": "cafeteria", "municipio": "Puerto de la Cruz", "direccion": "Chiyero", "numero": "1", "direccion_completa": "Chiyero, 1", "grupo_restauracion": "Cafe", "peso_inicial": 5.0 }, "geometry": { "type": "Point", "coordinates": [ -16.55012469, 28.41003025 ] } },
{ "type": "Feature", "properties": { "nombre": "Alborada", "actividad": "restaurante", "municipio": "Arona", "direccion": "Fernando Salazar Gonzalez", "numero": "11", "direccion_completa": "Fernando Salazar Gonzalez, 11", "grupo_restauracion": "Restaurante", "peso_inicial": 5.0 }, "geometry": { "type": "Point", "coordinates": [ -16.65340687, 28.00803395 ] } },
{ "type": "Feature", "properties": { "nombre": "Alborada", "actividad": "bar cafeteria", "municipio": "Santa Cruz de Tenerife", "direccion": "Simon Bolivar", "numero": "3", "direccion_completa": "Simon Bolivar, 3", "grupo_restauracion": "Local_Tapeo", "peso_inicial": 5.0 }, "geometry": { "type": "Point", "coordinates": [ -16.269701, 28.46429799 ] } },
{ "type": "Feature", "properties": { "nombre": "Alborada", "actividad": "restaurante", "municipio": "Santa Cruz de Tenerife", "direccion": "Juan de Avila", "numero": "4", "direccion_completa": "Juan de Avila, 4", "grupo_restauracion": "Restaurante", "peso_inicial": 5.0 }, "geometry": { "type": "Point", "coordinates": [ -16.27440632, 28.45149371 ] } },
{ "type": "Feature", "properties": { "nombre": "Alcampo", "actividad": "bar", "municipio": "La Orotava", "direccion": "TF 5 Norte", "numero": "0", "direccion_completa": "TF 5 Norte, 0", "grupo_restauracion": "Local_Tapeo", "peso_inicial": 5.0 }, "geometry": { "type": "Point", "coordinates": [ -16.5475005, 28.39561123 ] } },
{ "type": "Feature", "properties": { "nombre": "Alegre Buffet", "actividad": "restaurante", "municipio": "La Laguna", "direccion": "El Paso", "numero": "20", "direccion_completa": "El Paso, 20", "grupo_restauracion": "Restaurante", "peso_inicial": 5.0 }, "geometry": { "type": "Point", "coordinates": [ -16.3010931, 28.45972629 ] } },
{ "type": "Feature", "properties": { "nombre": "Alegria", "actividad": "cafeteria", "municipio": "Santa Úrsula", "direccion": "Doctor Perez", "numero": "10", "direccion_completa": "Doctor Perez, 10", "grupo_restauracion": "Cafe", "peso_inicial": 5.0 }, "geometry": { "type": "Point", "coordinates": [ -16.49095187, 28.42579251 ] } },
{ "type": "Feature", "properties": { "nombre": "Alejandra", "actividad": "bar cafeteria", "municipio": "La Laguna", "direccion": "Santa Rosa de Lima", "numero": "38", "direccion_completa": "Santa Rosa de Lima, 38", "grupo_restauracion": "Local_Tapeo", "peso_inicial": 5.0 }, "geometry": { "type": "Point", "coordinates": [ -16.37119759, 28.49413359 ] } },
{ "type": "Feature", "properties": { "nombre": "Alejandro's Bar", "actividad": "bar", "municipio": "Adeje", "direccion": "Los Pueblos", "numero": "26", "direccion_completa": "Los Pueblos, 26", "grupo_restauracion": "Local_Tapeo", "peso_inicial": 5.0 }, "geometry": { "type": "Point", "coordinates": [ -16.73031135, 28.07960547 ] } },
{ "type": "Feature", "properties": { "nombre": "Aleluyas del Paladar", "actividad": "restaurante", "municipio": "Santa Úrsula", "direccion": "Provincial TF 217", "numero": "173", "direccion_completa": "Provincial TF 217, 173", "grupo_restauracion": "Restaurante", "peso_inicial": 5.0 }, "geometry": { "type": "Point", "coordinates": [ -16.50330425, 28.41752443 ] } },
{ "type": "Feature", "properties": { "nombre": "Alemana", "actividad": "cafeteria", "municipio": "Puerto de la Cruz", "direccion": "San Felipe", "numero": "44", "direccion_completa": "San Felipe, 44", "grupo_restauracion": "Cafe", "peso_inicial": 5.0 }, "geometry": { "type": "Point", "coordinates": [ -16.553896, 28.41639799 ] } },
{ "type": "Feature", "properties": { "nombre": "Alena", "actividad": "bar", "municipio": "Arona", "direccion": "Espigon Benchijigua", "numero": "11", "direccion_completa": "Espigon Benchijigua, 11", "grupo_restauracion": "Local_Tapeo", "peso_inicial": 5.0 }, "geometry": { "type": "Point", "coordinates": [ -16.71882885, 28.04738009 ] } },
{ "type": "Feature", "properties": { "nombre": "Alex", "actividad": "bar", "municipio": "La Laguna", "direccion": "San Honorato", "numero": "1", "direccion_completa": "San Honorato, 1", "grupo_restauracion": "Local_Tapeo", "peso_inicial": 5.0 }, "geometry": { "type": "Point", "coordinates": [ -16.31978492, 28.48694461 ] } },
{ "type": "Feature", "properties": { "nombre": "Alexander", "actividad": "bar cafeteria", "municipio": "Adeje", "direccion": "Los Pueblos", "numero": "26", "direccion_completa": "Los Pueblos, 26", "grupo_restauracion": "Local_Tapeo", "peso_inicial": 5.0 }, "geometry": { "type": "Point", "coordinates": [ -16.73015893, 28.07981593 ] } },
{ "type": "Feature", "properties": { "nombre": "Alexia's", "actividad": "cafeteria", "municipio": "Güimar", "direccion": "Juan Pedro Rodriguez Cruz", "numero": "2", "direccion_completa": "Juan Pedro Rodriguez Cruz, 2", "grupo_restauracion": "Cafe", "peso_inicial": 5.0 }, "geometry": { "type": "Point", "coordinates": [ -16.37254738, 28.29591962 ] } },
{ "type": "Feature", "properties": { "nombre": "Alfe", "actividad": "bar", "municipio": "Arona", "direccion": "San Martin de Porres", "numero": "1", "direccion_completa": "San Martin de Porres, 1", "grupo_restauracion": "Local_Tapeo", "peso_inicial": 5.0 }, "geometry": { "type": "Point", "coordinates": [ -16.67152213, 28.07394952 ] } },
{ "type": "Feature", "properties": { "nombre": "Alhambra", "actividad": "bar", "municipio": "Arona", "direccion": "Monaco", "numero": "6", "direccion_completa": "Monaco, 6", "grupo_restauracion": "Local_Tapeo", "peso_inicial": 5.0 }, "geometry": { "type": "Point", "coordinates": [ -16.714469, 28.05469004 ] } },
{ "type": "Feature", "properties": { "nombre": "Alia", "actividad": "restaurante", "municipio": "La Laguna", "direccion": "Barcelona", "numero": "3", "direccion_completa": "Barcelona, 3", "grupo_restauracion": "Restaurante", "peso_inicial": 5.0 }, "geometry": { "type": "Point", "coordinates": [ -16.31512853, 28.48550031 ] } },
{ "type": "Feature", "properties": { "nombre": "Alice", "actividad": "restaurante", "municipio": "Arona", "direccion": "Rafael Puig Lluvina", "numero": "19", "direccion_completa": "Rafael Puig Lluvina, 19", "grupo_restauracion": "Restaurante", "peso_inicial": 5.0 }, "geometry": { "type": "Point", "coordinates": [ -16.73238323, 28.05917156 ] } },
{ "type": "Feature", "properties": { "nombre": "Alisios Canarios", "actividad": "bar cafeteria", "municipio": "Guía de Isora", "direccion": "Isora", "numero": "113", "direccion_completa": "Isora, 113", "grupo_restauracion": "Local_Tapeo", "peso_inicial": 5.0 }, "geometry": { "type": "Point", "coordinates": [ -16.78375694, 28.21424043 ] } },
{ "type": "Feature", "properties": { "nombre": "Alma", "actividad": "bar cafeteria", "municipio": "Arona", "direccion": "El Palmar", "numero": "64", "direccion_completa": "El Palmar, 64", "grupo_restauracion": "Local_Tapeo", "peso_inicial": 5.0 }, "geometry": { "type": "Point", "coordinates": [ -16.70136642, 28.02494057 ] } },
{ "type": "Feature", "properties": { "nombre": "Alma Llanera", "actividad": "bar cafeteria", "municipio": "Arona", "direccion": "General TF 657 Cabo Blanco", "numero": "212", "direccion_completa": "General TF 657 Cabo Blanco, 212", "grupo_restauracion": "Local_Tapeo", "peso_inicial": 5.0 }, "geometry": { "type": "Point", "coordinates": [ -16.66806902, 28.07011714 ] } },
{ "type": "Feature", "properties": { "nombre": "Almano Burger", "actividad": "cafeteria", "municipio": "Santa Úrsula", "direccion": "España TF 217", "numero": "26", "direccion_completa": "España TF 217, 26", "grupo_restauracion": "Cafe", "peso_inicial": 5.0 }, "geometry": { "type": "Point", "coordinates": [ -16.48991844, 28.42531201 ] } },
{ "type": "Feature", "properties": { "nombre": "Almar", "actividad": "bar", "municipio": "Candelaria", "direccion": "Maritima", "numero": "23", "direccion_completa": "Maritima, 23", "grupo_restauracion": "Local_Tapeo", "peso_inicial": 5.0 }, "geometry": { "type": "Point", "coordinates": [ -16.36615515, 28.36185922 ] } },
{ "type": "Feature", "properties": { "nombre": "Almeida", "actividad": "bar cafeteria", "municipio": "Santa Cruz de Tenerife", "direccion": "Los Majuelos", "numero": "71", "direccion_completa": "Los Majuelos, 71", "grupo_restauracion": "Local_Tapeo", "peso_inicial": 5.0 }, "geometry": { "type": "Point", "coordinates": [ -16.31965952, 28.4350755 ] } },
{ "type": "Feature", "properties": { "nombre": "Almejor", "actividad": "restaurante", "municipio": "Adeje", "direccion": "España", "numero": "10", "direccion_completa": "España, 10", "grupo_restauracion": "Restaurante", "peso_inicial": 5.0 }, "geometry": { "type": "Point", "coordinates": [ -16.73264364, 28.08156963 ] } },
{ "type": "Feature", "properties": { "nombre": "Aloha", "actividad": "sala de fiestas", "municipio": "Santa Cruz de Tenerife", "direccion": "La Salle", "numero": "22", "direccion_completa": "La Salle, 22", "grupo_restauracion": "Nocturno", "peso_inicial": 5.0 }, "geometry": { "type": "Point", "coordinates": [ -16.25696026, 28.4614495 ] } },
{ "type": "Feature", "properties": { "nombre": "Aloha", "actividad": "bar cafeteria zumeria", "municipio": "Candelaria", "direccion": "Maritima", "numero": "29", "direccion_completa": "Maritima, 29", "grupo_restauracion": "Local_Tapeo", "peso_inicial": 5.0 }, "geometry": { "type": "Point", "coordinates": [ -16.36434947, 28.36584688 ] } },
{ "type": "Feature", "properties": { "nombre": "Alojera", "actividad": "bar", "municipio": "Santa Cruz de Tenerife", "direccion": "San Martin", "numero": "65", "direccion_completa": "San Martin, 65", "grupo_restauracion": "Local_Tapeo", "peso_inicial": 5.0 }, "geometry": { "type": "Point", "coordinates": [ -16.25055576, 28.47337975 ] } },
{ "type": "Feature", "properties": { "nombre": "Alojera", "actividad": "restaurante", "municipio": "Arona", "direccion": "San Isabel ", "numero": "22", "direccion_completa": "San Isabel , 22", "grupo_restauracion": "Restaurante", "peso_inicial": 5.0 }, "geometry": { "type": "Point", "coordinates": [ -16.67127986, 28.07561515 ] } },
{ "type": "Feature", "properties": { "nombre": "Alondras Park", "actividad": "bar", "municipio": "Arona", "direccion": "Minerva", "numero": "16", "direccion_completa": "Minerva, 16", "grupo_restauracion": "Local_Tapeo", "peso_inicial": 5.0 }, "geometry": { "type": "Point", "coordinates": [ -16.640689, 28.0101512 ] } },
{ "type": "Feature", "properties": { "nombre": "Alonso", "actividad": "bar", "municipio": "Santa Cruz de Tenerife", "direccion": "Afur", "numero": "43", "direccion_completa": "Afur, 43", "grupo_restauracion": "Local_Tapeo", "peso_inicial": 5.0 }, "geometry": { "type": "Point", "coordinates": [ -16.24908573, 28.55506087 ] } },
{ "type": "Feature", "properties": { "nombre": "Alonso", "actividad": "bar cafeteria", "municipio": "Arona", "direccion": "Fernando Salazar Gonzalez", "numero": "17", "direccion_completa": "Fernando Salazar Gonzalez, 17", "grupo_restauracion": "Local_Tapeo", "peso_inicial": 5.0 }, "geometry": { "type": "Point", "coordinates": [ -16.65400581, 28.00688777 ] } },
{ "type": "Feature", "properties": { "nombre": "Alonso", "actividad": "restaurante", "municipio": "La Laguna", "direccion": "General TF 263 San Miguel de Geneto", "numero": "170", "direccion_completa": "General TF 263 San Miguel de Geneto, 170", "grupo_restauracion": "Restaurante", "peso_inicial": 5.0 }, "geometry": { "type": "Point", "coordinates": [ -16.31509667, 28.45928183 ] } },
{ "type": "Feature", "properties": { "nombre": "Alonso", "actividad": "bar", "municipio": "Adeje", "direccion": "Emeterio Gutierrez Arbelo", "numero": "8", "direccion_completa": "Emeterio Gutierrez Arbelo, 8", "grupo_restauracion": "Local_Tapeo", "peso_inicial": 5.0 }, "geometry": { "type": "Point", "coordinates": [ -16.75492959, 28.12967709 ] } },
{ "type": "Feature", "properties": { "nombre": "Alonso", "actividad": "bar", "municipio": "Santa Cruz de Tenerife", "direccion": "Venezuela", "numero": "40", "direccion_completa": "Venezuela, 40", "grupo_restauracion": "Local_Tapeo", "peso_inicial": 5.0 }, "geometry": { "type": "Point", "coordinates": [ -16.27198214, 28.47032054 ] } },
{ "type": "Feature", "properties": { "nombre": "Alonso", "actividad": "bar", "municipio": "Vilaflor", "direccion": "San Roque", "numero": "8", "direccion_completa": "San Roque, 8", "grupo_restauracion": "Local_Tapeo", "peso_inicial": 5.0 }, "geometry": { "type": "Point", "coordinates": [ -16.64237131, 28.1610121 ] } },
{ "type": "Feature", "properties": { "nombre": "Alpi", "actividad": "bar", "municipio": "Arona", "direccion": "Jose Antonio Tavio Afonso", "numero": "3", "direccion_completa": "Jose Antonio Tavio Afonso, 3", "grupo_restauracion": "Local_Tapeo", "peso_inicial": 5.0 }, "geometry": { "type": "Point", "coordinates": [ -16.64673682, 28.0114002 ] } },
{ "type": "Feature", "properties": { "nombre": "Alt Minchen", "actividad": "restaurante", "municipio": "Puerto de la Cruz", "direccion": "Aceviño", "numero": "8", "direccion_completa": "Aceviño, 8", "grupo_restauracion": "Restaurante", "peso_inicial": 5.0 }, "geometry": { "type": "Point", "coordinates": [ -16.53598464, 28.41508923 ] } },
{ "type": "Feature", "properties": { "nombre": "Altagay", "actividad": "bar", "municipio": "La Laguna", "direccion": "Oceano Indico", "numero": "13", "direccion_completa": "Oceano Indico, 13", "grupo_restauracion": "Local_Tapeo", "peso_inicial": 5.0 }, "geometry": { "type": "Point", "coordinates": [ -16.33223511, 28.56897744 ] } },
{ "type": "Feature", "properties": { "nombre": "Altagay", "actividad": "restaurante", "municipio": "La Laguna", "direccion": "Oceano Indico", "numero": "13", "direccion_completa": "Oceano Indico, 13", "grupo_restauracion": "Restaurante", "peso_inicial": 5.0 }, "geometry": { "type": "Point", "coordinates": [ -16.33228478, 28.56898182 ] } },
{ "type": "Feature", "properties": { "nombre": "Altamira Cup Cafe", "actividad": "cafeteria", "municipio": "Adeje", "direccion": "El Beril", "numero": "5", "direccion_completa": "El Beril, 5", "grupo_restauracion": "Cafe", "peso_inicial": 5.0 }, "geometry": { "type": "Point", "coordinates": [ -16.74644538, 28.09355112 ] } },
{ "type": "Feature", "properties": { "nombre": "Altavista", "actividad": "restaurante", "municipio": "Vilaflor", "direccion": "General TF 51 La Escalona", "numero": "5", "direccion_completa": "General TF 51 La Escalona, 5", "grupo_restauracion": "Restaurante", "peso_inicial": 5.0 }, "geometry": { "type": "Point", "coordinates": [ -16.673038, 28.11670899 ] } },
{ "type": "Feature", "properties": { "nombre": "Altemar", "actividad": "cafeteria", "municipio": "Arona", "direccion": "Noelia Afonso Cabrera", "numero": "8", "direccion_completa": "Noelia Afonso Cabrera, 8", "grupo_restauracion": "Cafe", "peso_inicial": 5.0 }, "geometry": { "type": "Point", "coordinates": [ -16.72946332, 28.05880331 ] } },
{ "type": "Feature", "properties": { "nombre": "Alton Towers", "actividad": "bar", "municipio": "Adeje", "direccion": "El Jable", "numero": "47", "direccion_completa": "El Jable, 47", "grupo_restauracion": "Local_Tapeo", "peso_inicial": 5.0 }, "geometry": { "type": "Point", "coordinates": [ -16.78297945, 28.12871457 ] } },
{ "type": "Feature", "properties": { "nombre": "Alvaro", "actividad": "bar", "municipio": "Adeje", "direccion": "Rafael Puig Lluvina", "numero": "5", "direccion_completa": "Rafael Puig Lluvina, 5", "grupo_restauracion": "Local_Tapeo", "peso_inicial": 5.0 }, "geometry": { "type": "Point", "coordinates": [ -16.73250722, 28.07061278 ] } },
{ "type": "Feature", "properties": { "nombre": "All Day Cafe", "actividad": "cafeteria", "municipio": "Santa Cruz de Tenerife", "direccion": "Alfaro", "numero": "9", "direccion_completa": "Alfaro, 9", "grupo_restauracion": "Cafe", "peso_inicial": 5.0 }, "geometry": { "type": "Point", "coordinates": [ -16.2546712, 28.46666903 ] } },
{ "type": "Feature", "properties": { "nombre": "Allday", "actividad": "bar cafeteria", "municipio": "La Laguna", "direccion": "General TF 111 Valle Tabares", "numero": "28", "direccion_completa": "General TF 111 Valle Tabares, 28", "grupo_restauracion": "Local_Tapeo", "peso_inicial": 5.0 }, "geometry": { "type": "Point", "coordinates": [ -16.28971556, 28.47096213 ] } },
{ "type": "Feature", "properties": { "nombre": "Am Eck", "actividad": "bar cafeteria", "municipio": "Santiago del Teide", "direccion": "Maritima", "numero": "29", "direccion_completa": "Maritima, 29", "grupo_restauracion": "Local_Tapeo", "peso_inicial": 5.0 }, "geometry": { "type": "Point", "coordinates": [ -16.84106455, 28.2313505 ] } },
{ "type": "Feature", "properties": { "nombre": "Amadeus", "actividad": "restaurante", "municipio": "Adeje", "direccion": "Colon", "numero": "5", "direccion_completa": "Colon, 5", "grupo_restauracion": "Restaurante", "peso_inicial": 5.0 }, "geometry": { "type": "Point", "coordinates": [ -16.73591915, 28.07866645 ] } },
{ "type": "Feature", "properties": { "nombre": "Amalfi", "actividad": "bar", "municipio": "Arona", "direccion": "Rafael Puig Lluvina", "numero": "10", "direccion_completa": "Rafael Puig Lluvina, 10", "grupo_restauracion": "Local_Tapeo", "peso_inicial": 5.0 }, "geometry": { "type": "Point", "coordinates": [ -16.73177036, 28.06509891 ] } },
{ "type": "Feature", "properties": { "nombre": "Amanda", "actividad": "restaurante", "municipio": "Adeje", "direccion": "España", "numero": "10", "direccion_completa": "España, 10", "grupo_restauracion": "Restaurante", "peso_inicial": 5.0 }, "geometry": { "type": "Point", "coordinates": [ -16.73279639, 28.0814698 ] } },
{ "type": "Feature", "properties": { "nombre": "Amarca", "actividad": "restaurante", "municipio": "Icod de los Vinos", "direccion": "Maritima", "numero": "27", "direccion_completa": "Maritima, 27", "grupo_restauracion": "Restaurante", "peso_inicial": 5.0 }, "geometry": { "type": "Point", "coordinates": [ -16.72391424, 28.37738991 ] } },
{ "type": "Feature", "properties": { "nombre": "Amaya", "actividad": "restaurante", "municipio": "La Laguna", "direccion": "El Cedro", "numero": "6", "direccion_completa": "El Cedro, 6", "grupo_restauracion": "Restaurante", "peso_inicial": 5.0 }, "geometry": { "type": "Point", "coordinates": [ -16.30424737, 28.4475438 ] } },
{ "type": "Feature", "properties": { "nombre": "Amazonas", "actividad": "bar cafeteria", "municipio": "Arico", "direccion": "Ocira", "numero": "23", "direccion_completa": "Ocira, 23", "grupo_restauracion": "Local_Tapeo", "peso_inicial": 5.0 }, "geometry": { "type": "Point", "coordinates": [ -16.44019525, 28.14286635 ] } },
{ "type": "Feature", "properties": { "nombre": "Amazonas II", "actividad": "bar", "municipio": "La Laguna", "direccion": "San Cristobal", "numero": "30", "direccion_completa": "San Cristobal, 30", "grupo_restauracion": "Local_Tapeo", "peso_inicial": 5.0 }, "geometry": { "type": "Point", "coordinates": [ -16.31420392, 28.48455221 ] } },
{ "type": "Feature", "properties": { "nombre": "Amazonia Canaria", "actividad": "restaurante", "municipio": "Adeje", "direccion": "Quinto Centenario", "numero": "1", "direccion_completa": "Quinto Centenario, 1", "grupo_restauracion": "Restaurante", "peso_inicial": 5.0 }, "geometry": { "type": "Point", "coordinates": [ -16.72667722, 28.06771227 ] } },
{ "type": "Feature", "properties": { "nombre": "Ambassadeur", "actividad": "restaurante", "municipio": "Arona", "direccion": "Arquitecto Gomez Cuesta", "numero": "2", "direccion_completa": "Arquitecto Gomez Cuesta, 2", "grupo_restauracion": "Restaurante", "peso_inicial": 5.0 }, "geometry": { "type": "Point", "coordinates": [ -16.73040297, 28.06519176 ] } },
{ "type": "Feature", "properties": { "nombre": "Amberes", "actividad": "restaurante", "municipio": "Arona", "direccion": "Rafael Puig Lluvina", "numero": "4", "direccion_completa": "Rafael Puig Lluvina, 4", "grupo_restauracion": "Restaurante", "peso_inicial": 5.0 }, "geometry": { "type": "Point", "coordinates": [ -16.73231449, 28.06615619 ] } },
{ "type": "Feature", "properties": { "nombre": "Ambiente", "actividad": "restaurante", "municipio": "Puerto de la Cruz", "direccion": "Marques Villanueva del Prado", "numero": "6", "direccion_completa": "Marques Villanueva del Prado, 6", "grupo_restauracion": "Restaurante", "peso_inicial": 5.0 }, "geometry": { "type": "Point", "coordinates": [ -16.54205086, 28.41316895 ] } },
{ "type": "Feature", "properties": { "nombre": "Ambiente", "actividad": "café", "municipio": "Adeje", "direccion": "Rafael Puig Lluvina", "numero": "16", "direccion_completa": "Rafael Puig Lluvina, 16", "grupo_restauracion": "Cafe", "peso_inicial": 5.0 }, "geometry": { "type": "Point", "coordinates": [ -16.73096485, 28.07109167 ] } },
{ "type": "Feature", "properties": { "nombre": "Ambrosio y Holanda", "actividad": "bar", "municipio": "La Laguna", "direccion": "Marques de Bajamar", "numero": "36", "direccion_completa": "Marques de Bajamar, 36", "grupo_restauracion": "Local_Tapeo", "peso_inicial": 5.0 }, "geometry": { "type": "Point", "coordinates": [ -16.28632487, 28.47225419 ] } },
{ "type": "Feature", "properties": { "nombre": "America 1", "actividad": "bar cafeteria", "municipio": "Santa Cruz de Tenerife", "direccion": "Bethencourt Alfonso", "numero": "35", "direccion_completa": "Bethencourt Alfonso, 35", "grupo_restauracion": "Local_Tapeo", "peso_inicial": 5.0 }, "geometry": { "type": "Point", "coordinates": [ -16.25091065, 28.46738741 ] } },
{ "type": "Feature", "properties": { "nombre": "American Bar", "actividad": "bar", "municipio": "La Laguna", "direccion": "Los Menceyes", "numero": "427", "direccion_completa": "Los Menceyes, 427", "grupo_restauracion": "Local_Tapeo", "peso_inicial": 5.0 }, "geometry": { "type": "Point", "coordinates": [ -16.28418502, 28.467552 ] } },
{ "type": "Feature", "properties": { "nombre": "American Burger", "actividad": "bar", "municipio": "Santiago del Teide", "direccion": "Maritima", "numero": "31", "direccion_completa": "Maritima, 31", "grupo_restauracion": "Local_Tapeo", "peso_inicial": 5.0 }, "geometry": { "type": "Point", "coordinates": [ -16.84023107, 28.23065457 ] } },
{ "type": "Feature", "properties": { "nombre": "American Dreams", "actividad": "restaurante", "municipio": "Arona", "direccion": "Rafael Puig Lluvina", "numero": "12", "direccion_completa": "Rafael Puig Lluvina, 12", "grupo_restauracion": "Restaurante", "peso_inicial": 5.0 }, "geometry": { "type": "Point", "coordinates": [ -16.7315552, 28.06418742 ] } },
{ "type": "Feature", "properties": { "nombre": "American Friend Chicken", "actividad": "restaurante", "municipio": "Arona", "direccion": "Arquitecto Gomez Cuesta", "numero": "4", "direccion_completa": "Arquitecto Gomez Cuesta, 4", "grupo_restauracion": "Restaurante", "peso_inicial": 5.0 }, "geometry": { "type": "Point", "coordinates": [ -16.73000298, 28.06594089 ] } },
{ "type": "Feature", "properties": { "nombre": "Amici Miei", "actividad": "restaurante", "municipio": "Arona", "direccion": "La Habana", "numero": "12", "direccion_completa": "La Habana, 12", "grupo_restauracion": "Restaurante", "peso_inicial": 5.0 }, "geometry": { "type": "Point", "coordinates": [ -16.72351671, 28.05378523 ] } },
{ "type": "Feature", "properties": { "nombre": "Amigo's", "actividad": "bar", "municipio": "Adeje", "direccion": "Colon", "numero": "5", "direccion_completa": "Colon, 5", "grupo_restauracion": "Local_Tapeo", "peso_inicial": 5.0 }, "geometry": { "type": "Point", "coordinates": [ -16.73595427, 28.07851391 ] } },
{ "type": "Feature", "properties": { "nombre": "Amigos", "actividad": "bar", "municipio": "Granadilla de Abona", "direccion": "La Gaviota", "numero": "4", "direccion_completa": "La Gaviota, 4", "grupo_restauracion": "Local_Tapeo", "peso_inicial": 5.0 }, "geometry": { "type": "Point", "coordinates": [ -16.593791, 28.03096049 ] } },
{ "type": "Feature", "properties": { "nombre": "Amigos del Norte", "actividad": "restaurante", "municipio": "Los Realejos", "direccion": "General TF 326 La Ferruja", "numero": "168", "direccion_completa": "General TF 326 La Ferruja, 168", "grupo_restauracion": "Restaurante", "peso_inicial": 5.0 }, "geometry": { "type": "Point", "coordinates": [ -16.56308926, 28.36028209 ] } },
{ "type": "Feature", "properties": { "nombre": "Amistad", "actividad": "bar cafeteria", "municipio": "Guía de Isora", "direccion": "Virgen de Candelaria", "numero": "3", "direccion_completa": "Virgen de Candelaria, 3", "grupo_restauracion": "Local_Tapeo", "peso_inicial": 5.0 }, "geometry": { "type": "Point", "coordinates": [ -16.82681535, 28.19990789 ] } },
{ "type": "Feature", "properties": { "nombre": "Amistad I", "actividad": "bar cafeteria", "municipio": "Arona", "direccion": "General TF 28 Sur", "numero": "186", "direccion_completa": "General TF 28 Sur, 186", "grupo_restauracion": "Local_Tapeo", "peso_inicial": 5.0 }, "geometry": { "type": "Point", "coordinates": [ -16.66169121, 28.0893115 ] } },
{ "type": "Feature", "properties": { "nombre": "Amor Escondido", "actividad": "bar", "municipio": "La Orotava", "direccion": "Los Rechazos", "numero": "22", "direccion_completa": "Los Rechazos, 22", "grupo_restauracion": "Local_Tapeo", "peso_inicial": 5.0 }, "geometry": { "type": "Point", "coordinates": [ -16.51591039, 28.40404283 ] } },
{ "type": "Feature", "properties": { "nombre": "Amorino", "actividad": "bar cafeteria", "municipio": "Santa Cruz de Tenerife", "direccion": "Tres de Mayo", "numero": "5", "direccion_completa": "Tres de Mayo, 5", "grupo_restauracion": "Local_Tapeo", "peso_inicial": 5.0 }, "geometry": { "type": "Point", "coordinates": [ -16.25423197, 28.45930527 ] } },
{ "type": "Feature", "properties": { "nombre": "Amorino Gelato", "actividad": "bar cafeteria", "municipio": "Adeje", "direccion": "Siam", "numero": "3", "direccion_completa": "Siam, 3", "grupo_restauracion": "Local_Tapeo", "peso_inicial": 5.0 }, "geometry": { "type": "Point", "coordinates": [ -16.72133254, 28.06846588 ] } },
{ "type": "Feature", "properties": { "nombre": "Amos Boulevard Cafe", "actividad": "bar cafeteria", "municipio": "Puerto de la Cruz", "direccion": "Profesor Antonio Gonzalez Gonzalez", "numero": "1", "direccion_completa": "Profesor Antonio Gonzalez Gonzalez, 1", "grupo_restauracion": "Local_Tapeo", "peso_inicial": 5.0 }, "geometry": { "type": "Point", "coordinates": [ -16.5513438, 28.40685831 ] } },
{ "type": "Feature", "properties": { "nombre": "Amsterdam", "actividad": "bar", "municipio": "Arona", "direccion": "Mexico", "numero": "3", "direccion_completa": "Mexico, 3", "grupo_restauracion": "Local_Tapeo", "peso_inicial": 5.0 }, "geometry": { "type": "Point", "coordinates": [ -16.73372896, 28.06088832 ] } },
{ "type": "Feature", "properties": { "nombre": "Amsterdam-Santa Cruz", "actividad": "bar", "municipio": "Santa Cruz de Tenerife", "direccion": "Poggi Borsotto", "numero": "2", "direccion_completa": "Poggi Borsotto, 2", "grupo_restauracion": "Local_Tapeo", "peso_inicial": 5.0 }, "geometry": { "type": "Point", "coordinates": [ -16.26816084, 28.46595003 ] } },
{ "type": "Feature", "properties": { "nombre": "Ana", "actividad": "bar cafeteria", "municipio": "Arona", "direccion": "General TF 28 Sur", "numero": "108", "direccion_completa": "General TF 28 Sur, 108", "grupo_restauracion": "Local_Tapeo", "peso_inicial": 5.0 }, "geometry": { "type": "Point", "coordinates": [ -16.65671737, 28.09108727 ] } },
{ "type": "Feature", "properties": { "nombre": "Anabel II", "actividad": "restaurante", "municipio": "El Tanque", "direccion": "Venezuela", "numero": "36", "direccion_completa": "Venezuela, 36", "grupo_restauracion": "Restaurante", "peso_inicial": 5.0 }, "geometry": { "type": "Point", "coordinates": [ -16.78822079, 28.32728712 ] } },
{ "type": "Feature", "properties": { "nombre": "Anaga", "actividad": "restaurante", "municipio": "Santa Cruz de Tenerife", "direccion": "Ramon y Cajal", "numero": "52", "direccion_completa": "Ramon y Cajal, 52", "grupo_restauracion": "Restaurante", "peso_inicial": 5.0 }, "geometry": { "type": "Point", "coordinates": [ -16.26029154, 28.46648987 ] } },
{ "type": "Feature", "properties": { "nombre": "Anaga 15", "actividad": "bar cafeteria", "municipio": "Santa Cruz de Tenerife", "direccion": "Francisco La Roche", "numero": "15", "direccion_completa": "Francisco La Roche, 15", "grupo_restauracion": "Local_Tapeo", "peso_inicial": 5.0 }, "geometry": { "type": "Point", "coordinates": [ -16.24754366, 28.47070541 ] } },
{ "type": "Feature", "properties": { "nombre": "Analisa", "actividad": "pub", "municipio": "Adeje", "direccion": "España", "numero": "5", "direccion_completa": "España, 5", "grupo_restauracion": "Nocturno", "peso_inicial": 5.0 }, "geometry": { "type": "Point", "coordinates": [ -16.7338981, 28.07989109 ] } },
{ "type": "Feature", "properties": { "nombre": "Ananda Casual Cafe", "actividad": "bar cafeteria", "municipio": "La Laguna", "direccion": "Juan de Vera", "numero": "8", "direccion_completa": "Juan de Vera, 8", "grupo_restauracion": "Local_Tapeo", "peso_inicial": 5.0 }, "geometry": { "type": "Point", "coordinates": [ -16.31641221, 28.4898011 ] } },
{ "type": "Feature", "properties": { "nombre": "Andaluza", "actividad": "bar cafeteria arepera", "municipio": "Santa Úrsula", "direccion": "Doctor Perez", "numero": "13", "direccion_completa": "Doctor Perez, 13", "grupo_restauracion": "Local_Tapeo", "peso_inicial": 5.0 }, "geometry": { "type": "Point", "coordinates": [ -16.48992251, 28.42637244 ] } },
{ "type": "Feature", "properties": { "nombre": "Andana Beach Club", "actividad": "restaurante", "municipio": "Puerto de la Cruz", "direccion": "Francisco Afonso Carrillo", "numero": "8", "direccion_completa": "Francisco Afonso Carrillo, 8", "grupo_restauracion": "Restaurante", "peso_inicial": 5.0 }, "geometry": { "type": "Point", "coordinates": [ -16.56134023, 28.41130008 ] } },
{ "type": "Feature", "properties": { "nombre": "Andarife", "actividad": "restaurante", "municipio": "Los Realejos", "direccion": "La Longuera", "numero": "22", "direccion_completa": "La Longuera, 22", "grupo_restauracion": "Restaurante", "peso_inicial": 5.0 }, "geometry": { "type": "Point", "coordinates": [ -16.57603512, 28.39785521 ] } },
{ "type": "Feature", "properties": { "nombre": "Anden", "actividad": "bar", "municipio": "Santa Cruz de Tenerife", "direccion": "El Perdon", "numero": "41", "direccion_completa": "El Perdon, 41", "grupo_restauracion": "Local_Tapeo", "peso_inicial": 5.0 }, "geometry": { "type": "Point", "coordinates": [ -16.26179431, 28.46997254 ] } },
{ "type": "Feature", "properties": { "nombre": "Anderson", "actividad": "bar", "municipio": "Puerto de la Cruz", "direccion": "Familia Bethencourt y Molina", "numero": "24", "direccion_completa": "Familia Bethencourt y Molina, 24", "grupo_restauracion": "Local_Tapeo", "peso_inicial": 5.0 }, "geometry": { "type": "Point", "coordinates": [ -16.54386441, 28.41684222 ] } },
{ "type": "Feature", "properties": { "nombre": "Andorra III", "actividad": "bar", "municipio": "Arona", "direccion": "Antonio Dominguez Alfonso", "numero": "10", "direccion_completa": "Antonio Dominguez Alfonso, 10", "grupo_restauracion": "Local_Tapeo", "peso_inicial": 5.0 }, "geometry": { "type": "Point", "coordinates": [ -16.72917336, 28.0564998 ] } },
{ "type": "Feature", "properties": { "nombre": "Andrea", "actividad": "restaurante", "municipio": "El Rosario", "direccion": "Belgica", "numero": "2", "direccion_completa": "Belgica, 2", "grupo_restauracion": "Restaurante", "peso_inicial": 5.0 }, "geometry": { "type": "Point", "coordinates": [ -16.33121324, 28.4022749 ] } },
{ "type": "Feature", "properties": { "nombre": "Andrea", "actividad": "bar cafeteria", "municipio": "Santa Cruz de Tenerife", "direccion": "Los Majuelos", "numero": "79", "direccion_completa": "Los Majuelos, 79", "grupo_restauracion": "Local_Tapeo", "peso_inicial": 5.0 }, "geometry": { "type": "Point", "coordinates": [ -16.32021462, 28.43303607 ] } },
{ "type": "Feature", "properties": { "nombre": "Andrea's", "actividad": "restaurante", "municipio": "Arona", "direccion": "Valle Menendez", "numero": "6", "direccion_completa": "Valle Menendez, 6", "grupo_restauracion": "Restaurante", "peso_inicial": 5.0 }, "geometry": { "type": "Point", "coordinates": [ -16.71488079, 28.05244943 ] } },
{ "type": "Feature", "properties": { "nombre": "Andrea Juani", "actividad": "bar cafeteria", "municipio": "Santa Cruz de Tenerife", "direccion": "Roque Negro", "numero": "55", "direccion_completa": "Roque Negro, 55", "grupo_restauracion": "Local_Tapeo", "peso_inicial": 5.0 }, "geometry": { "type": "Point", "coordinates": [ -16.24715685, 28.54345509 ] } },
{ "type": "Feature", "properties": { "nombre": "Andres", "actividad": "bar", "municipio": "Santa Cruz de Tenerife", "direccion": "San Sebastian", "numero": "51", "direccion_completa": "San Sebastian, 51", "grupo_restauracion": "Local_Tapeo", "peso_inicial": 5.0 }, "geometry": { "type": "Point", "coordinates": [ -16.25179815, 28.46308622 ] } },
{ "type": "Feature", "properties": { "nombre": "Andres", "actividad": "cafeteria", "municipio": "Granadilla de Abona", "direccion": "Santa Cruz", "numero": "61", "direccion_completa": "Santa Cruz, 61", "grupo_restauracion": "Cafe", "peso_inicial": 5.0 }, "geometry": { "type": "Point", "coordinates": [ -16.55899614, 28.08065464 ] } },
{ "type": "Feature", "properties": { "nombre": "Andres by Juany", "actividad": "bar cafeteria", "municipio": "San Juan de la Rambla", "direccion": "General TF 351 San Jose", "numero": "53", "direccion_completa": "General TF 351 San Jose, 53", "grupo_restauracion": "Local_Tapeo", "peso_inicial": 5.0 }, "geometry": { "type": "Point", "coordinates": [ -16.644468, 28.38008299 ] } },
{ "type": "Feature", "properties": { "nombre": "Andromeda", "actividad": "sala de fiestas", "municipio": "Puerto de la Cruz", "direccion": "Colon", "numero": "1", "direccion_completa": "Colon, 1", "grupo_restauracion": "Nocturno", "peso_inicial": 5.0 }, "geometry": { "type": "Point", "coordinates": [ -16.54498462, 28.41783141 ] } },
{ "type": "Feature", "properties": { "nombre": "Andromeda II", "actividad": "restaurante", "municipio": "Arico", "direccion": "El Rio", "numero": "3", "direccion_completa": "El Rio, 3", "grupo_restauracion": "Restaurante", "peso_inicial": 5.0 }, "geometry": { "type": "Point", "coordinates": [ -16.48396237, 28.10116506 ] } },
{ "type": "Feature", "properties": { "nombre": "Angel", "actividad": "restaurante", "municipio": "Arico", "direccion": "General TF 28 Sur", "numero": "16", "direccion_completa": "General TF 28 Sur, 16", "grupo_restauracion": "Restaurante", "peso_inicial": 5.0 }, "geometry": { "type": "Point", "coordinates": [ -16.50544563, 28.16048961 ] } },
{ "type": "Feature", "properties": { "nombre": "Angel", "actividad": "bar", "municipio": "Adeje", "direccion": "Los Pueblos", "numero": "20", "direccion_completa": "Los Pueblos, 20", "grupo_restauracion": "Local_Tapeo", "peso_inicial": 5.0 }, "geometry": { "type": "Point", "coordinates": [ -16.73161466, 28.07754411 ] } },
{ "type": "Feature", "properties": { "nombre": "Angela", "actividad": "bar", "municipio": "Adeje", "direccion": "La Constitucion", "numero": "2", "direccion_completa": "La Constitucion, 2", "grupo_restauracion": "Local_Tapeo", "peso_inicial": 5.0 }, "geometry": { "type": "Point", "coordinates": [ -16.72723713, 28.12211735 ] } },
{ "type": "Feature", "properties": { "nombre": "Angeles", "actividad": "bar", "municipio": "Icod de los Vinos", "direccion": "Llanito Perera", "numero": "58", "direccion_completa": "Llanito Perera, 58", "grupo_restauracion": "Local_Tapeo", "peso_inicial": 5.0 }, "geometry": { "type": "Point", "coordinates": [ -16.69172821, 28.35800471 ] } },
{ "type": "Feature", "properties": { "nombre": "Angeles", "actividad": "bar cafeteria", "municipio": "Arona", "direccion": "Rafael Puig Lluvina", "numero": "8", "direccion_completa": "Rafael Puig Lluvina, 8", "grupo_restauracion": "Local_Tapeo", "peso_inicial": 5.0 }, "geometry": { "type": "Point", "coordinates": [ -16.73222264, 28.06552191 ] } },
{ "type": "Feature", "properties": { "nombre": "Angeles Cafe", "actividad": "bar cafeteria", "municipio": "Puerto de la Cruz", "direccion": "Jose Maria del Campo Llarena", "numero": "7", "direccion_completa": "Jose Maria del Campo Llarena, 7", "grupo_restauracion": "Local_Tapeo", "peso_inicial": 5.0 }, "geometry": { "type": "Point", "coordinates": [ -16.55698804, 28.41365227 ] } },
{ "type": "Feature", "properties": { "nombre": "Angelito", "actividad": "bar", "municipio": "Santa Cruz de Tenerife", "direccion": "Mencey Ventor", "numero": "65", "direccion_completa": "Mencey Ventor, 65", "grupo_restauracion": "Local_Tapeo", "peso_inicial": 5.0 }, "geometry": { "type": "Point", "coordinates": [ -16.27070066, 28.47133878 ] } },
{ "type": "Feature", "properties": { "nombre": "Angelo", "actividad": "restaurante", "municipio": "La Laguna", "direccion": "Oceano Indico", "numero": "13", "direccion_completa": "Oceano Indico, 13", "grupo_restauracion": "Restaurante", "peso_inicial": 5.0 }, "geometry": { "type": "Point", "coordinates": [ -16.33228955, 28.56889811 ] } },
{ "type": "Feature", "properties": { "nombre": "Anju Restauracion", "actividad": "restaurante", "municipio": "Arafo", "direccion": "Industrial Valle de Guimar", "numero": "0", "direccion_completa": "Industrial Valle de Guimar, 0", "grupo_restauracion": "Restaurante", "peso_inicial": 5.0 }, "geometry": { "type": "Point", "coordinates": [ -16.37129626, 28.33154216 ] } },
{ "type": "Feature", "properties": { "nombre": "Ann & Annas Cafe", "actividad": "bar cafeteria", "municipio": "Arona", "direccion": "La Habana", "numero": "7", "direccion_completa": "La Habana, 7", "grupo_restauracion": "Local_Tapeo", "peso_inicial": 5.0 }, "geometry": { "type": "Point", "coordinates": [ -16.72130635, 28.05123706 ] } },
{ "type": "Feature", "properties": { "nombre": "Anna Tom Cafe", "actividad": "bar cafeteria", "municipio": "Adeje", "direccion": "El Laurel", "numero": "6", "direccion_completa": "El Laurel, 6", "grupo_restauracion": "Local_Tapeo", "peso_inicial": 5.0 }, "geometry": { "type": "Point", "coordinates": [ -16.72655579, 28.09184687 ] } },
{ "type": "Feature", "properties": { "nombre": "Anocheza", "actividad": "restaurante tasca", "municipio": "Santa Cruz de Tenerife", "direccion": "Santa Teresita", "numero": "3", "direccion_completa": "Santa Teresita, 3", "grupo_restauracion": "Local_Tapeo", "peso_inicial": 5.0 }, "geometry": { "type": "Point", "coordinates": [ -16.25199987, 28.47378621 ] } },
{ "type": "Feature", "properties": { "nombre": "Anrober Roma", "actividad": "cafeteria", "municipio": "Arona", "direccion": "TF 1 Sur", "numero": "0", "direccion_completa": "TF 1 Sur, 0", "grupo_restauracion": "Cafe", "peso_inicial": 5.0 }, "geometry": { "type": "Point", "coordinates": [ -16.69094991, 28.05898805 ] } },
{ "type": "Feature", "properties": { "nombre": "Antequera", "actividad": "restaurante", "municipio": "Santa Cruz de Tenerife", "direccion": "Bufadero", "numero": "76", "direccion_completa": "Bufadero, 76", "grupo_restauracion": "Restaurante", "peso_inicial": 5.0 }, "geometry": { "type": "Point", "coordinates": [ -16.22595264, 28.49929894 ] } },
{ "type": "Feature", "properties": { "nombre": "Antica Pizzeria del Porto", "actividad": "bar cafeteria", "municipio": "Arona", "direccion": "Dulce Maria Loinaz", "numero": "8", "direccion_completa": "Dulce Maria Loinaz, 8", "grupo_restauracion": "Local_Tapeo", "peso_inicial": 5.0 }, "geometry": { "type": "Point", "coordinates": [ -16.71970495, 28.0507357 ] } },
{ "type": "Feature", "properties": { "nombre": "Antica Roma", "actividad": "restaurante", "municipio": "Adeje", "direccion": "Colon", "numero": "5", "direccion_completa": "Colon, 5", "grupo_restauracion": "Restaurante", "peso_inicial": 5.0 }, "geometry": { "type": "Point", "coordinates": [ -16.73593265, 28.07855205 ] } },
{ "type": "Feature", "properties": { "nombre": "Antico Caffe", "actividad": "bar cafeteria", "municipio": "Adeje", "direccion": "Valencia", "numero": "3", "direccion_completa": "Valencia, 3", "grupo_restauracion": "Local_Tapeo", "peso_inicial": 5.0 }, "geometry": { "type": "Point", "coordinates": [ -16.73466425, 28.08225233 ] } },
{ "type": "Feature", "properties": { "nombre": "Antigua Heladeria", "actividad": "heladeria", "municipio": "Adeje", "direccion": "Los Vientos", "numero": "10", "direccion_completa": "Los Vientos, 10", "grupo_restauracion": "FastFood", "peso_inicial": 5.0 }, "geometry": { "type": "Point", "coordinates": [ -16.73089429, 28.11676264 ] } },
{ "type": "Feature", "properties": { "nombre": "Antiguo Restaurante del Puerto", "actividad": "restaurante", "municipio": "Arona", "direccion": "Dulce Maria Loinaz", "numero": "26", "direccion_completa": "Dulce Maria Loinaz, 26", "grupo_restauracion": "Restaurante", "peso_inicial": 5.0 }, "geometry": { "type": "Point", "coordinates": [ -16.72037003, 28.05014707 ] } },
{ "type": "Feature", "properties": { "nombre": "Antolin", "actividad": "bar cafeteria", "municipio": "La Laguna", "direccion": "Fernando Diaz Cutillas", "numero": "20", "direccion_completa": "Fernando Diaz Cutillas, 20", "grupo_restauracion": "Local_Tapeo", "peso_inicial": 5.0 }, "geometry": { "type": "Point", "coordinates": [ -16.30128248, 28.46196 ] } },
{ "type": "Feature", "properties": { "nombre": "Antonia", "actividad": "restaurante", "municipio": "Adeje", "direccion": "El Cerco", "numero": "2", "direccion_completa": "El Cerco, 2", "grupo_restauracion": "Restaurante", "peso_inicial": 5.0 },