{
  "type": "FeatureCollection",
  "name": "Paradas de guagua",
  "features": [
    {
      "type": "Feature",
      "properties": {
        "parada_id": 1100,
        "parada_nombre": "ACORÁN",
        "latitud": 28.4184,
        "longitud": -16.3038,
        "parada_url": "http://www.titsa.com/correspondencias.php?idc=1100"
      },
      "geometry": {
        "type": "Point",
        "coordinates": [
          -16.3038,
          28.4184
        ]
      }
    },
    {
      "type": "Feature",
      "properties": {
        "parada_id": 1101,
        "parada_nombre": "ATABARA",
        "latitud": 28.4176,
        "longitud": -16.3067,
        "parada_url": "http://www.titsa.com/correspondencias.php?idc=1101"
      },
      "geometry": {
        "type": "Point",
        "coordinates": [
          -16.3067,
          28.4176
        ]
      }
    },
    {
      "type": "Feature",
      "properties": {
        "parada_id": 1102,
        "parada_nombre": "AYOZE",
        "latitud": 28.4163,
        "longitud": -16.3088,
        "parada_url": "http://www.titsa.com/correspondencias.php?idc=1102"
      },
      "geometry": {
        "type": "Point",
        "coordinates": [
          -16.3088,
          28.4163
        ]
      }
    },
    {
      "type": "Feature",
      "properties": {
        "parada_id": 1103,
        "parada_nombre": "ADONAI",
        "latitud": 28.4152,
        "longitud": -16.3113,
        "parada_url": "http://www.titsa.com/correspondencias.php?idc=1103"
      },
      "geometry": {
        "type": "Point",
        "coordinates": [
          -16.3113,
          28.4152
        ]
      }
    },
    {
      "type": "Feature",
      "properties": {
        "parada_id": 1104,
        "parada_nombre": "POLÍGONO LA CAMPANA",
        "latitud": 28.4088,
        "longitud": -16.3176,
        "parada_url": "http://www.titsa.com/correspondencias.php?idc=1104"
      },
      "geometry": {
        "type": "Point",
        "coordinates": [
          -16.3176,
          28.4088
        ]
      }
    },
    {
      "type": "Feature",
      "properties": {
        "parada_id": 1105,
        "parada_nombre": "HORIZONTE",
        "latitud": 28.4064,
        "longitud": -16.3175,
        "parada_url": "http://www.titsa.com/correspondencias.php?idc=1105"
      },
      "geometry": {
        "type": "Point",
        "coordinates": [
          -16.3175,
          28.4064
        ]
      }
    },
    {
      "type": "Feature",
      "properties": {
        "parada_id": 1106,
        "parada_nombre": "BOCA CANGREJO",
        "latitud": 28.4062,
        "longitud": -16.3161,
        "parada_url": "http://www.titsa.com/correspondencias.php?idc=1106"
      },
      "geometry": {
        "type": "Point",
        "coordinates": [
          -16.3161,
          28.4062
        ]
      }
    },
    {
      "type": "Feature",
      "properties": {
        "parada_id": 1107,
        "parada_nombre": "PLAYA LA NEA",
        "latitud": 28.4052,
        "longitud": -16.3168,
        "parada_url": "http://www.titsa.com/correspondencias.php?idc=1107"
      },
      "geometry": {
        "type": "Point",
        "coordinates": [
          -16.3168,
          28.4052
        ]
      }
    },
    {
      "type": "Feature",
      "properties": {
        "parada_id": 1108,
        "parada_nombre": "BOCA CANGREJO",
        "latitud": 28.4061,
        "longitud": -16.3161,
        "parada_url": "http://www.titsa.com/correspondencias.php?idc=1108"
      },
      "geometry": {
        "type": "Point",
        "coordinates": [
          -16.3161,
          28.4061
        ]
      }
    },
    {
      "type": "Feature",
      "properties": {
        "parada_id": 1109,
        "parada_nombre": "HORIZONTE",
        "latitud": 28.4062,
        "longitud": -16.3175,
        "parada_url": "http://www.titsa.com/correspondencias.php?idc=1109"
      },
      "geometry": {
        "type": "Point",
        "coordinates": [
          -16.3175,
          28.4062
        ]
      }
    },
    {
      "type": "Feature",
      "properties": {
        "parada_id": 1110,
        "parada_nombre": "POLÍGONO LA CAMPANA",
        "latitud": 28.4088,
        "longitud": -16.3175,
        "parada_url": "http://www.titsa.com/correspondencias.php?idc=1110"
      },
      "geometry": {
        "type": "Point",
        "coordinates": [
          -16.3175,
          28.4088
        ]
      }
    },
    {
      "type": "Feature",
      "properties": {
        "parada_id": 1111,
        "parada_nombre": "ADONAI",
        "latitud": 28.4152,
        "longitud": -16.3112,
        "parada_url": "http://www.titsa.com/correspondencias.php?idc=1111"
      },
      "geometry": {
        "type": "Point",
        "coordinates": [
          -16.3112,
          28.4152
        ]
      }
    },
    {
      "type": "Feature",
      "properties": {
        "parada_id": 1112,
        "parada_nombre": "AYOZE",
        "latitud": 28.4161,
        "longitud": -16.3086,
        "parada_url": "http://www.titsa.com/correspondencias.php?idc=1112"
      },
      "geometry": {
        "type": "Point",
        "coordinates": [
          -16.3086,
          28.4161
        ]
      }
    },
    {
      "type": "Feature",
      "properties": {
        "parada_id": 1113,
        "parada_nombre": "ATABARA",
        "latitud": 28.4178,
        "longitud": -16.3065,
        "parada_url": "http://www.titsa.com/correspondencias.php?idc=1113"
      },
      "geometry": {
        "type": "Point",
        "coordinates": [
          -16.3065,
          28.4178
        ]
      }
    },
    {
      "type": "Feature",
      "properties": {
        "parada_id": 1114,
        "parada_nombre": "ACORÁN",
        "latitud": 28.4183,
        "longitud": -16.3038,
        "parada_url": "http://www.titsa.com/correspondencias.php?idc=1114"
      },
      "geometry": {
        "type": "Point",
        "coordinates": [
          -16.3038,
          28.4183
        ]
      }
    },
    {
      "type": "Feature",
      "properties": {
        "parada_id": 1115,
        "parada_nombre": "RADAZUL",
        "latitud": 28.4068,
        "longitud": -16.322,
        "parada_url": "http://www.titsa.com/correspondencias.php?idc=1115"
      },
      "geometry": {
        "type": "Point",
        "coordinates": [
          -16.322,
          28.4068
        ]
      }
    },
    {
      "type": "Feature",
      "properties": {
        "parada_id": 1118,
        "parada_nombre": "EL CHARCO",
        "latitud": 28.3966,
        "longitud": -16.344,
        "parada_url": "http://www.titsa.com/correspondencias.php?idc=1118"
      },
      "geometry": {
        "type": "Point",
        "coordinates": [
          -16.344,
          28.3966
        ]
      }
    },
    {
      "type": "Feature",
      "properties": {
        "parada_id": 1119,
        "parada_nombre": "LAS ADELFAS",
        "latitud": 28.3978,
        "longitud": -16.3482,
        "parada_url": "http://www.titsa.com/correspondencias.php?idc=1119"
      },
      "geometry": {
        "type": "Point",
        "coordinates": [
          -16.3482,
          28.3978
        ]
      }
    },
    {
      "type": "Feature",
      "properties": {
        "parada_id": 1121,
        "parada_nombre": "RUBÉN MARICHAL",
        "latitud": 28.3959,
        "longitud": -16.3506,
        "parada_url": "http://www.titsa.com/correspondencias.php?idc=1121"
      },
      "geometry": {
        "type": "Point",
        "coordinates": [
          -16.3506,
          28.3959
        ]
      }
    },
    {
      "type": "Feature",
      "properties": {
        "parada_id": 1125,
        "parada_nombre": "RADAZUL",
        "latitud": 28.406,
        "longitud": -16.3228,
        "parada_url": "http://www.titsa.com/correspondencias.php?idc=1125"
      },
      "geometry": {
        "type": "Point",
        "coordinates": [
          -16.3228,
          28.406
        ]
      }
    },
    {
      "type": "Feature",
      "properties": {
        "parada_id": 1126,
        "parada_nombre": "SAN ISIDRO (T)",
        "latitud": 28.4151,
        "longitud": -16.3226,
        "parada_url": "http://www.titsa.com/correspondencias.php?idc=1126"
      },
      "geometry": {
        "type": "Point",
        "coordinates": [
          -16.3226,
          28.4151
        ]
      }
    },
    {
      "type": "Feature",
      "properties": {
        "parada_id": 1127,
        "parada_nombre": "SAN ISIDRO (T)",
        "latitud": 28.4151,
        "longitud": -16.3227,
        "parada_url": "http://www.titsa.com/correspondencias.php?idc=1127"
      },
      "geometry": {
        "type": "Point",
        "coordinates": [
          -16.3227,
          28.4151
        ]
      }
    },
    {
      "type": "Feature",
      "properties": {
        "parada_id": 1128,
        "parada_nombre": "EL CHORRILLO",
        "latitud": 28.4099,
        "longitud": -16.3287,
        "parada_url": "http://www.titsa.com/correspondencias.php?idc=1128"
      },
      "geometry": {
        "type": "Point",
        "coordinates": [
          -16.3287,
          28.4099
        ]
      }
    },
    {
      "type": "Feature",
      "properties": {
        "parada_id": 1129,
        "parada_nombre": "ANGÉLICA",
        "latitud": 28.4084,
        "longitud": -16.3355,
        "parada_url": "http://www.titsa.com/correspondencias.php?idc=1129"
      },
      "geometry": {
        "type": "Point",
        "coordinates": [
          -16.3355,
          28.4084
        ]
      }
    },
    {
      "type": "Feature",
      "properties": {
        "parada_id": 1130,
        "parada_nombre": "LOS JUNCOS",
        "latitud": 28.4076,
        "longitud": -16.3387,
        "parada_url": "http://www.titsa.com/correspondencias.php?idc=1130"
      },
      "geometry": {
        "type": "Point",
        "coordinates": [
          -16.3387,
          28.4076
        ]
      }
    },
    {
      "type": "Feature",
      "properties": {
        "parada_id": 1131,
        "parada_nombre": "LAS MORADILLAS",
        "latitud": 28.4018,
        "longitud": -16.3507,
        "parada_url": "http://www.titsa.com/correspondencias.php?idc=1131"
      },
      "geometry": {
        "type": "Point",
        "coordinates": [
          -16.3507,
          28.4018
        ]
      }
    },
    {
      "type": "Feature",
      "properties": {
        "parada_id": 1132,
        "parada_nombre": "HERNÁNDEZ MARRERO (T)",
        "latitud": 28.3988,
        "longitud": -16.3518,
        "parada_url": "http://www.titsa.com/correspondencias.php?idc=1132"
      },
      "geometry": {
        "type": "Point",
        "coordinates": [
          -16.3518,
          28.3988
        ]
      }
    },
    {
      "type": "Feature",
      "properties": {
        "parada_id": 1133,
        "parada_nombre": "TACONILLO",
        "latitud": 28.3984,
        "longitud": -16.3538,
        "parada_url": "http://www.titsa.com/correspondencias.php?idc=1133"
      },
      "geometry": {
        "type": "Point",
        "coordinates": [
          -16.3538,
          28.3984
        ]
      }
    },
    {
      "type": "Feature",
      "properties": {
        "parada_id": 1134,
        "parada_nombre": "APARTADERO",
        "latitud": 28.3972,
        "longitud": -16.355,
        "parada_url": "http://www.titsa.com/correspondencias.php?idc=1134"
      },
      "geometry": {
        "type": "Point",
        "coordinates": [
          -16.355,
          28.3972
        ]
      }
    },
    {
      "type": "Feature",
      "properties": {
        "parada_id": 1135,
        "parada_nombre": "LLANO LA ROSA",
        "latitud": 28.3981,
        "longitud": -16.3567,
        "parada_url": "http://www.titsa.com/correspondencias.php?idc=1135"
      },
      "geometry": {
        "type": "Point",
        "coordinates": [
          -16.3567,
          28.3981
        ]
      }
    },
    {
      "type": "Feature",
      "properties": {
        "parada_id": 1136,
        "parada_nombre": "ALBERTO MARTELL",
        "latitud": 28.3955,
        "longitud": -16.3565,
        "parada_url": "http://www.titsa.com/correspondencias.php?idc=1136"
      },
      "geometry": {
        "type": "Point",
        "coordinates": [
          -16.3565,
          28.3955
        ]
      }
    },
    {
      "type": "Feature",
      "properties": {
        "parada_id": 1137,
        "parada_nombre": "CEMENTERIO",
        "latitud": 28.3953,
        "longitud": -16.3599,
        "parada_url": "http://www.titsa.com/correspondencias.php?idc=1137"
      },
      "geometry": {
        "type": "Point",
        "coordinates": [
          -16.3599,
          28.3953
        ]
      }
    },
    {
      "type": "Feature",
      "properties": {
        "parada_id": 1138,
        "parada_nombre": "LA ANGOSTURA",
        "latitud": 28.3966,
        "longitud": -16.3609,
        "parada_url": "http://www.titsa.com/correspondencias.php?idc=1138"
      },
      "geometry": {
        "type": "Point",
        "coordinates": [
          -16.3609,
          28.3966
        ]
      }
    },
    {
      "type": "Feature",
      "properties": {
        "parada_id": 1139,
        "parada_nombre": "CRUZ LOS CANTOS (T)",
        "latitud": 28.3991,
        "longitud": -16.3607,
        "parada_url": "http://www.titsa.com/correspondencias.php?idc=1139"
      },
      "geometry": {
        "type": "Point",
        "coordinates": [
          -16.3607,
          28.3991
        ]
      }
    },
    {
      "type": "Feature",
      "properties": {
        "parada_id": 1140,
        "parada_nombre": "LA ANGOSTURA",
        "latitud": 28.3966,
        "longitud": -16.361,
        "parada_url": "http://www.titsa.com/correspondencias.php?idc=1140"
      },
      "geometry": {
        "type": "Point",
        "coordinates": [
          -16.361,
          28.3966
        ]
      }
    },
    {
      "type": "Feature",
      "properties": {
        "parada_id": 1141,
        "parada_nombre": "CEMENTERIO",
        "latitud": 28.3952,
        "longitud": -16.36,
        "parada_url": "http://www.titsa.com/correspondencias.php?idc=1141"
      },
      "geometry": {
        "type": "Point",
        "coordinates": [
          -16.36,
          28.3952
        ]
      }
    },
    {
      "type": "Feature",
      "properties": {
        "parada_id": 1142,
        "parada_nombre": "ALBERTO MARTELL",
        "latitud": 28.3957,
        "longitud": -16.3565,
        "parada_url": "http://www.titsa.com/correspondencias.php?idc=1142"
      },
      "geometry": {
        "type": "Point",
        "coordinates": [
          -16.3565,
          28.3957
        ]
      }
    },
    {
      "type": "Feature",
      "properties": {
        "parada_id": 1143,
        "parada_nombre": "LLANO LA ROSA",
        "latitud": 28.398,
        "longitud": -16.3566,
        "parada_url": "http://www.titsa.com/correspondencias.php?idc=1143"
      },
      "geometry": {
        "type": "Point",
        "coordinates": [
          -16.3566,
          28.398
        ]
      }
    },
    {
      "type": "Feature",
      "properties": {
        "parada_id": 1144,
        "parada_nombre": "APARTADERO",
        "latitud": 28.3974,
        "longitud": -16.3549,
        "parada_url": "http://www.titsa.com/correspondencias.php?idc=1144"
      },
      "geometry": {
        "type": "Point",
        "coordinates": [
          -16.3549,
          28.3974
        ]
      }
    },
    {
      "type": "Feature",
      "properties": {
        "parada_id": 1145,
        "parada_nombre": "TACONILLO",
        "latitud": 28.3984,
        "longitud": -16.3537,
        "parada_url": "http://www.titsa.com/correspondencias.php?idc=1145"
      },
      "geometry": {
        "type": "Point",
        "coordinates": [
          -16.3537,
          28.3984
        ]
      }
    },
    {
      "type": "Feature",
      "properties": {
        "parada_id": 1146,
        "parada_nombre": "HERNÁNDEZ MARRERO (T)",
        "latitud": 28.3987,
        "longitud": -16.3517,
        "parada_url": "http://www.titsa.com/correspondencias.php?idc=1146"
      },
      "geometry": {
        "type": "Point",
        "coordinates": [
          -16.3517,
          28.3987
        ]
      }
    },
    {
      "type": "Feature",
      "properties": {
        "parada_id": 1147,
        "parada_nombre": "LAS MORADILLAS",
        "latitud": 28.4017,
        "longitud": -16.3506,
        "parada_url": "http://www.titsa.com/correspondencias.php?idc=1147"
      },
      "geometry": {
        "type": "Point",
        "coordinates": [
          -16.3506,
          28.4017
        ]
      }
    },
    {
      "type": "Feature",
      "properties": {
        "parada_id": 1148,
        "parada_nombre": "LOS JUNCOS",
        "latitud": 28.4075,
        "longitud": -16.3386,
        "parada_url": "http://www.titsa.com/correspondencias.php?idc=1148"
      },
      "geometry": {
        "type": "Point",
        "coordinates": [
          -16.3386,
          28.4075
        ]
      }
    },
    {
      "type": "Feature",
      "properties": {
        "parada_id": 1149,
        "parada_nombre": "ANGÉLICA",
        "latitud": 28.4084,
        "longitud": -16.3353,
        "parada_url": "http://www.titsa.com/correspondencias.php?idc=1149"
      },
      "geometry": {
        "type": "Point",
        "coordinates": [
          -16.3353,
          28.4084
        ]
      }
    },
    {
      "type": "Feature",
      "properties": {
        "parada_id": 1150,
        "parada_nombre": "EL CHORRILLO",
        "latitud": 28.4098,
        "longitud": -16.3287,
        "parada_url": "http://www.titsa.com/correspondencias.php?idc=1150"
      },
      "geometry": {
        "type": "Point",
        "coordinates": [
          -16.3287,
          28.4098
        ]
      }
    },
    {
      "type": "Feature",
      "properties": {
        "parada_id": 1151,
        "parada_nombre": "SANTA MARÍA DEL MAR (T)",
        "latitud": 28.4253,
        "longitud": -16.3044,
        "parada_url": "http://www.titsa.com/correspondencias.php?idc=1151"
      },
      "geometry": {
        "type": "Point",
        "coordinates": [
          -16.3044,
          28.4253
        ]
      }
    },
    {
      "type": "Feature",
      "properties": {
        "parada_id": 1152,
        "parada_nombre": "LAS ACACIAS",
        "latitud": 28.4049,
        "longitud": -16.324,
        "parada_url": "http://www.titsa.com/correspondencias.php?idc=1152"
      },
      "geometry": {
        "type": "Point",
        "coordinates": [
          -16.324,
          28.4049
        ]
      }
    },
    {
      "type": "Feature",
      "properties": {
        "parada_id": 1153,
        "parada_nombre": "CENTRO COMERCIAL",
        "latitud": 28.4027,
        "longitud": -16.3243,
        "parada_url": "http://www.titsa.com/correspondencias.php?idc=1153"
      },
      "geometry": {
        "type": "Point",
        "coordinates": [
          -16.3243,
          28.4027
        ]
      }
    },
    {
      "type": "Feature",
      "properties": {
        "parada_id": 1154,
        "parada_nombre": "JUAN SEBASTIÁN EL CANO",
        "latitud": 28.403,
        "longitud": -16.3206,
        "parada_url": "http://www.titsa.com/correspondencias.php?idc=1154"
      },
      "geometry": {
        "type": "Point",
        "coordinates": [
          -16.3206,
          28.403
        ]
      }
    },
    {
      "type": "Feature",
      "properties": {
        "parada_id": 1155,
        "parada_nombre": "PLAYA LA NEA",
        "latitud": 28.4023,
        "longitud": -16.3195,
        "parada_url": "http://www.titsa.com/correspondencias.php?idc=1155"
      },
      "geometry": {
        "type": "Point",
        "coordinates": [
          -16.3195,
          28.4023
        ]
      }
    },
    {
      "type": "Feature",
      "properties": {
        "parada_id": 1156,
        "parada_nombre": "JUAN SEBASTIÁN EL CANO",
        "latitud": 28.4032,
        "longitud": -16.32,
        "parada_url": "http://www.titsa.com/correspondencias.php?idc=1156"
      },
      "geometry": {
        "type": "Point",
        "coordinates": [
          -16.32,
          28.4032
        ]
      }
    },
    {
      "type": "Feature",
      "properties": {
        "parada_id": 1157,
        "parada_nombre": "CENTRO COMERCIAL",
        "latitud": 28.4029,
        "longitud": -16.3245,
        "parada_url": "http://www.titsa.com/correspondencias.php?idc=1157"
      },
      "geometry": {
        "type": "Point",
        "coordinates": [
          -16.3245,
          28.4029
        ]
      }
    },
    {
      "type": "Feature",
      "properties": {
        "parada_id": 1158,
        "parada_nombre": "OQUENDO",
        "latitud": 28.4037,
        "longitud": -16.3258,
        "parada_url": "http://www.titsa.com/correspondencias.php?idc=1158"
      },
      "geometry": {
        "type": "Point",
        "coordinates": [
          -16.3258,
          28.4037
        ]
      }
    },
    {
      "type": "Feature",
      "properties": {
        "parada_id": 1159,
        "parada_nombre": "LAS ACACIAS",
        "latitud": 28.4049,
        "longitud": -16.3231,
        "parada_url": "http://www.titsa.com/correspondencias.php?idc=1159"
      },
      "geometry": {
        "type": "Point",
        "coordinates": [
          -16.3231,
          28.4049
        ]
      }
    },
    {
      "type": "Feature",
      "properties": {
        "parada_id": 1160,
        "parada_nombre": "PARAISO",
        "latitud": 28.4066,
        "longitud": -16.3249,
        "parada_url": "http://www.titsa.com/correspondencias.php?idc=1160"
      },
      "geometry": {
        "type": "Point",
        "coordinates": [
          -16.3249,
          28.4066
        ]
      }
    },
    {
      "type": "Feature",
      "properties": {
        "parada_id": 1161,
        "parada_nombre": "CLUB BATISTANA",
        "latitud": 28.4087,
        "longitud": -16.3257,
        "parada_url": "http://www.titsa.com/correspondencias.php?idc=1161"
      },
      "geometry": {
        "type": "Point",
        "coordinates": [
          -16.3257,
          28.4087
        ]
      }
    },
    {
      "type": "Feature",
      "properties": {
        "parada_id": 1162,
        "parada_nombre": "RADAZUL ALTO",
        "latitud": 28.4097,
        "longitud": -16.3277,
        "parada_url": "http://www.titsa.com/correspondencias.php?idc=1162"
      },
      "geometry": {
        "type": "Point",
        "coordinates": [
          -16.3277,
          28.4097
        ]
      }
    },
    {
      "type": "Feature",
      "properties": {
        "parada_id": 1163,
        "parada_nombre": "LLANO BLANCO",
        "latitud": 28.411,
        "longitud": -16.3292,
        "parada_url": "http://www.titsa.com/correspondencias.php?idc=1163"
      },
      "geometry": {
        "type": "Point",
        "coordinates": [
          -16.3292,
          28.411
        ]
      }
    },
    {
      "type": "Feature",
      "properties": {
        "parada_id": 1164,
        "parada_nombre": "1 DE MAYO",
        "latitud": 28.4124,
        "longitud": -16.3314,
        "parada_url": "http://www.titsa.com/correspondencias.php?idc=1164"
      },
      "geometry": {
        "type": "Point",
        "coordinates": [
          -16.3314,
          28.4124
        ]
      }
    },
    {
      "type": "Feature",
      "properties": {
        "parada_id": 1165,
        "parada_nombre": "COLEGIO ALEMAN",
        "latitud": 28.4108,
        "longitud": -16.3355,
        "parada_url": "http://www.titsa.com/correspondencias.php?idc=1165"
      },
      "geometry": {
        "type": "Point",
        "coordinates": [
          -16.3355,
          28.4108
        ]
      }
    },
    {
      "type": "Feature",
      "properties": {
        "parada_id": 1166,
        "parada_nombre": "BREZO",
        "latitud": 28.4097,
        "longitud": -16.3356,
        "parada_url": "http://www.titsa.com/correspondencias.php?idc=1166"
      },
      "geometry": {
        "type": "Point",
        "coordinates": [
          -16.3356,
          28.4097
        ]
      }
    },
    {
      "type": "Feature",
      "properties": {
        "parada_id": 1167,
        "parada_nombre": "CODESO",
        "latitud": 28.4102,
        "longitud": -16.3327,
        "parada_url": "http://www.titsa.com/correspondencias.php?idc=1167"
      },
      "geometry": {
        "type": "Point",
        "coordinates": [
          -16.3327,
          28.4102
        ]
      }
    },
    {
      "type": "Feature",
      "properties": {
        "parada_id": 1168,
        "parada_nombre": "DRAGO",
        "latitud": 28.4099,
        "longitud": -16.3305,
        "parada_url": "http://www.titsa.com/correspondencias.php?idc=1168"
      },
      "geometry": {
        "type": "Point",
        "coordinates": [
          -16.3305,
          28.4099
        ]
      }
    },
    {
      "type": "Feature",
      "properties": {
        "parada_id": 1169,
        "parada_nombre": "TARAJAL",
        "latitud": 28.408,
        "longitud": -16.3303,
        "parada_url": "http://www.titsa.com/correspondencias.php?idc=1169"
      },
      "geometry": {
        "type": "Point",
        "coordinates": [
          -16.3303,
          28.408
        ]
      }
    },
    {
      "type": "Feature",
      "properties": {
        "parada_id": 1170,
        "parada_nombre": "VERODES",
        "latitud": 28.4068,
        "longitud": -16.3305,
        "parada_url": "http://www.titsa.com/correspondencias.php?idc=1170"
      },
      "geometry": {
        "type": "Point",
        "coordinates": [
          -16.3305,
          28.4068
        ]
      }
    },
    {
      "type": "Feature",
      "properties": {
        "parada_id": 1171,
        "parada_nombre": "VERODES",
        "latitud": 28.4067,
        "longitud": -16.3305,
        "parada_url": "http://www.titsa.com/correspondencias.php?idc=1171"
      },
      "geometry": {
        "type": "Point",
        "coordinates": [
          -16.3305,
          28.4067
        ]
      }
    },
    {
      "type": "Feature",
      "properties": {
        "parada_id": 1172,
        "parada_nombre": "TARAJAL",
        "latitud": 28.4081,
        "longitud": -16.33,
        "parada_url": "http://www.titsa.com/correspondencias.php?idc=1172"
      },
      "geometry": {
        "type": "Point",
        "coordinates": [
          -16.33,
          28.4081
        ]
      }
    },
    {
      "type": "Feature",
      "properties": {
        "parada_id": 1173,
        "parada_nombre": "RADAZUL ALTO",
        "latitud": 28.4097,
        "longitud": -16.3279,
        "parada_url": "http://www.titsa.com/correspondencias.php?idc=1173"
      },
      "geometry": {
        "type": "Point",
        "coordinates": [
          -16.3279,
          28.4097
        ]
      }
    },
    {
      "type": "Feature",
      "properties": {
        "parada_id": 1174,
        "parada_nombre": "CLUB BATISTANA",
        "latitud": 28.4086,
        "longitud": -16.3257,
        "parada_url": "http://www.titsa.com/correspondencias.php?idc=1174"
      },
      "geometry": {
        "type": "Point",
        "coordinates": [
          -16.3257,
          28.4086
        ]
      }
    },
    {
      "type": "Feature",
      "properties": {
        "parada_id": 1175,
        "parada_nombre": "PARAISO",
        "latitud": 28.4066,
        "longitud": -16.3248,
        "parada_url": "http://www.titsa.com/correspondencias.php?idc=1175"
      },
      "geometry": {
        "type": "Point",
        "coordinates": [
          -16.3248,
          28.4066
        ]
      }
    },
    {
      "type": "Feature",
      "properties": {
        "parada_id": 1176,
        "parada_nombre": "VIOLETA",
        "latitud": 28.4069,
        "longitud": -16.3323,
        "parada_url": "http://www.titsa.com/correspondencias.php?idc=1176"
      },
      "geometry": {
        "type": "Point",
        "coordinates": [
          -16.3323,
          28.4069
        ]
      }
    },
    {
      "type": "Feature",
      "properties": {
        "parada_id": 1177,
        "parada_nombre": "VIOLETA",
        "latitud": 28.407,
        "longitud": -16.3325,
        "parada_url": "http://www.titsa.com/correspondencias.php?idc=1177"
      },
      "geometry": {
        "type": "Point",
        "coordinates": [
          -16.3325,
          28.407
        ]
      }
    },
    {
      "type": "Feature",
      "properties": {
        "parada_id": 1178,
        "parada_nombre": "ESPAÑA",
        "latitud": 28.4044,
        "longitud": -16.333,
        "parada_url": "http://www.titsa.com/correspondencias.php?idc=1178"
      },
      "geometry": {
        "type": "Point",
        "coordinates": [
          -16.333,
          28.4044
        ]
      }
    },
    {
      "type": "Feature",
      "properties": {
        "parada_id": 1179,
        "parada_nombre": "TABAIBA",
        "latitud": 28.4035,
        "longitud": -16.3318,
        "parada_url": "http://www.titsa.com/correspondencias.php?idc=1179"
      },
      "geometry": {
        "type": "Point",
        "coordinates": [
          -16.3318,
          28.4035
        ]
      }
    },
    {
      "type": "Feature",
      "properties": {
        "parada_id": 1180,
        "parada_nombre": "ESPAÑA",
        "latitud": 28.4041,
        "longitud": -16.3332,
        "parada_url": "http://www.titsa.com/correspondencias.php?idc=1180"
      },
      "geometry": {
        "type": "Point",
        "coordinates": [
          -16.3332,
          28.4041
        ]
      }
    },
    {
      "type": "Feature",
      "properties": {
        "parada_id": 1183,
        "parada_nombre": "CARRETERA SAN LÁZARO",
        "latitud": 28.4902,
        "longitud": -16.3287,
        "parada_url": "http://www.titsa.com/correspondencias.php?idc=1183"
      },
      "geometry": {
        "type": "Point",
        "coordinates": [
          -16.3287,
          28.4902
        ]
      }
    },
    {
      "type": "Feature",
      "properties": {
        "parada_id": 1184,
        "parada_nombre": "EL GOFIO",
        "latitud": 28.4901,
        "longitud": -16.3334,
        "parada_url": "http://www.titsa.com/correspondencias.php?idc=1184"
      },
      "geometry": {
        "type": "Point",
        "coordinates": [
          -16.3334,
          28.4901
        ]
      }
    },
    {
      "type": "Feature",
      "properties": {
        "parada_id": 1185,
        "parada_nombre": "ECLIPSE DE SOL",
        "latitud": 28.4897,
        "longitud": -16.3403,
        "parada_url": "http://www.titsa.com/correspondencias.php?idc=1185"
      },
      "geometry": {
        "type": "Point",
        "coordinates": [
          -16.3403,
          28.4897
        ]
      }
    },
    {
      "type": "Feature",
      "properties": {
        "parada_id": 1186,
        "parada_nombre": "EL PÚLPITO (T)",
        "latitud": 28.49,
        "longitud": -16.3494,
        "parada_url": "http://www.titsa.com/correspondencias.php?idc=1186"
      },
      "geometry": {
        "type": "Point",
        "coordinates": [
          -16.3494,
          28.49
        ]
      }
    },
    {
      "type": "Feature",
      "properties": {
        "parada_id": 1187,
        "parada_nombre": "EL PORTEZUELO (T)",
        "latitud": 28.49,
        "longitud": -16.3526,
        "parada_url": "http://www.titsa.com/correspondencias.php?idc=1187"
      },
      "geometry": {
        "type": "Point",
        "coordinates": [
          -16.3526,
          28.49
        ]
      }
    },
    {
      "type": "Feature",
      "properties": {
        "parada_id": 1188,
        "parada_nombre": "MOLINO VIEJO",
        "latitud": 28.4908,
        "longitud": -16.3554,
        "parada_url": "http://www.titsa.com/correspondencias.php?idc=1188"
      },
      "geometry": {
        "type": "Point",
        "coordinates": [
          -16.3554,
          28.4908
        ]
      }
    },
    {
      "type": "Feature",
      "properties": {
        "parada_id": 1189,
        "parada_nombre": "LA CRUZ CHICA (T)",
        "latitud": 28.4914,
        "longitud": -16.362,
        "parada_url": "http://www.titsa.com/correspondencias.php?idc=1189"
      },
      "geometry": {
        "type": "Point",
        "coordinates": [
          -16.362,
          28.4914
        ]
      }
    },
    {
      "type": "Feature",
      "properties": {
        "parada_id": 1190,
        "parada_nombre": "GUAMASA",
        "latitud": 28.4923,
        "longitud": -16.3669,
        "parada_url": "http://www.titsa.com/correspondencias.php?idc=1190"
      },
      "geometry": {
        "type": "Point",
        "coordinates": [
          -16.3669,
          28.4923
        ]
      }
    },
    {
      "type": "Feature",
      "properties": {
        "parada_id": 1191,
        "parada_nombre": "EL CANDIL",
        "latitud": 28.492,
        "longitud": -16.3712,
        "parada_url": "http://www.titsa.com/correspondencias.php?idc=1191"
      },
      "geometry": {
        "type": "Point",
        "coordinates": [
          -16.3712,
          28.492
        ]
      }
    },
    {
      "type": "Feature",
      "properties": {
        "parada_id": 1192,
        "parada_nombre": "EL BOQUERÓN (T)",
        "latitud": 28.4912,
        "longitud": -16.3755,
        "parada_url": "http://www.titsa.com/correspondencias.php?idc=1192"
      },
      "geometry": {
        "type": "Point",
        "coordinates": [
          -16.3755,
          28.4912
        ]
      }
    },
    {
      "type": "Feature",
      "properties": {
        "parada_id": 1193,
        "parada_nombre": "EL RODEO",
        "latitud": 28.4894,
        "longitud": -16.3803,
        "parada_url": "http://www.titsa.com/correspondencias.php?idc=1193"
      },
      "geometry": {
        "type": "Point",
        "coordinates": [
          -16.3803,
          28.4894
        ]
      }
    },
    {
      "type": "Feature",
      "properties": {
        "parada_id": 1194,
        "parada_nombre": "EL TRAZO (T)",
        "latitud": 28.4875,
        "longitud": -16.3867,
        "parada_url": "http://www.titsa.com/correspondencias.php?idc=1194"
      },
      "geometry": {
        "type": "Point",
        "coordinates": [
          -16.3867,
          28.4875
        ]
      }
    },
    {
      "type": "Feature",
      "properties": {
        "parada_id": 1195,
        "parada_nombre": "LOS NARANJEROS (T)",
        "latitud": 28.4866,
        "longitud": -16.3899,
        "parada_url": "http://www.titsa.com/correspondencias.php?idc=1195"
      },
      "geometry": {
        "type": "Point",
        "coordinates": [
          -16.3899,
          28.4866
        ]
      }
    },
    {
      "type": "Feature",
      "properties": {
        "parada_id": 1196,
        "parada_nombre": "NUEVO LAUREL",
        "latitud": 28.486,
        "longitud": -16.3929,
        "parada_url": "http://www.titsa.com/correspondencias.php?idc=1196"
      },
      "geometry": {
        "type": "Point",
        "coordinates": [
          -16.3929,
          28.486
        ]
      }
    },
    {
      "type": "Feature",
      "properties": {
        "parada_id": 1197,
        "parada_nombre": "LOMO COLORADO",
        "latitud": 28.4864,
        "longitud": -16.3957,
        "parada_url": "http://www.titsa.com/correspondencias.php?idc=1197"
      },
      "geometry": {
        "type": "Point",
        "coordinates": [
          -16.3957,
          28.4864
        ]
      }
    },
    {
      "type": "Feature",
      "properties": {
        "parada_id": 1199,
        "parada_nombre": "PEDRO FELIPE",
        "latitud": 28.4845,
        "longitud": -16.404,
        "parada_url": "http://www.titsa.com/correspondencias.php?idc=1199"
      },
      "geometry": {
        "type": "Point",
        "coordinates": [
          -16.404,
          28.4845
        ]
      }
    },
    {
      "type": "Feature",
      "properties": {
        "parada_id": 1200,
        "parada_nombre": "VALERIO PADRÓN",
        "latitud": 28.4834,
        "longitud": -16.406,
        "parada_url": "http://www.titsa.com/correspondencias.php?idc=1200"
      },
      "geometry": {
        "type": "Point",
        "coordinates": [
          -16.406,
          28.4834
        ]
      }
    },
    {
      "type": "Feature",
      "properties": {
        "parada_id": 1201,
        "parada_nombre": "CARRETERA TEJINA",
        "latitud": 28.4847,
        "longitud": -16.4103,
        "parada_url": "http://www.titsa.com/correspondencias.php?idc=1201"
      },
      "geometry": {
        "type": "Point",
        "coordinates": [
          -16.4103,
          28.4847
        ]
      }
    },
    {
      "type": "Feature",
      "properties": {
        "parada_id": 1202,
        "parada_nombre": "EL POLE",
        "latitud": 28.4846,
        "longitud": -16.4114,
        "parada_url": "http://www.titsa.com/correspondencias.php?idc=1202"
      },
      "geometry": {
        "type": "Point",
        "coordinates": [
          -16.4114,
          28.4846
        ]
      }
    },
    {
      "type": "Feature",
      "properties": {
        "parada_id": 1203,
        "parada_nombre": "EL CALVARIO",
        "latitud": 28.4843,
        "longitud": -16.4134,
        "parada_url": "http://www.titsa.com/correspondencias.php?idc=1203"
      },
      "geometry": {
        "type": "Point",
        "coordinates": [
          -16.4134,
          28.4843
        ]
      }
    },
    {
      "type": "Feature",
      "properties": {
        "parada_id": 1204,
        "parada_nombre": "CEMENTERIO",
        "latitud": 28.483,
        "longitud": -16.4159,
        "parada_url": "http://www.titsa.com/correspondencias.php?idc=1204"
      },
      "geometry": {
        "type": "Point",
        "coordinates": [
          -16.4159,
          28.483
        ]
      }
    },
    {
      "type": "Feature",
      "properties": {
        "parada_id": 1205,
        "parada_nombre": "SANTA CATALINA (T)",
        "latitud": 28.4831,
        "longitud": -16.4181,
        "parada_url": "http://www.titsa.com/correspondencias.php?idc=1205"
      },
      "geometry": {
        "type": "Point",
        "coordinates": [
          -16.4181,
          28.4831
        ]
      }
    },
    {
      "type": "Feature",
      "properties": {
        "parada_id": 1206,
        "parada_nombre": "LAS TOSCAS",
        "latitud": 28.4836,
        "longitud": -16.423,
        "parada_url": "http://www.titsa.com/correspondencias.php?idc=1206"
      },
      "geometry": {
        "type": "Point",
        "coordinates": [
          -16.423,
          28.4836
        ]
      }
    },
    {
      "type": "Feature",
      "properties": {
        "parada_id": 1207,
        "parada_nombre": "LOS GUANCHES",
        "latitud": 28.4831,
        "longitud": -16.4265,
        "parada_url": "http://www.titsa.com/correspondencias.php?idc=1207"
      },
      "geometry": {
        "type": "Point",
        "coordinates": [
          -16.4265,
          28.4831
        ]
      }
    },
    {
      "type": "Feature",
      "properties": {
        "parada_id": 1208,
        "parada_nombre": "LA PIEDAD",
        "latitud": 28.4815,
        "longitud": -16.429,
        "parada_url": "http://www.titsa.com/correspondencias.php?idc=1208"
      },
      "geometry": {
        "type": "Point",
        "coordinates": [
          -16.429,
          28.4815
        ]
      }
    },
    {
      "type": "Feature",
      "properties": {
        "parada_id": 1209,
        "parada_nombre": "OLIMPIA",
        "latitud": 28.4801,
        "longitud": -16.4308,
        "parada_url": "http://www.titsa.com/correspondencias.php?idc=1209"
      },
      "geometry": {
        "type": "Point",
        "coordinates": [
          -16.4308,
          28.4801
        ]
      }
    },
    {
      "type": "Feature",
      "properties": {
        "parada_id": 1211,
        "parada_nombre": "EL SAUZAL (T)",
        "latitud": 28.4794,
        "longitud": -16.4368,
        "parada_url": "http://www.titsa.com/correspondencias.php?idc=1211"
      },
      "geometry": {
        "type": "Point",
        "coordinates": [
          -16.4368,
          28.4794
        ]
      }
    },
    {
      "type": "Feature",
      "properties": {
        "parada_id": 1212,
        "parada_nombre": "LOS ANGELES",
        "latitud": 28.4724,
        "longitud": -16.4396,
        "parada_url": "http://www.titsa.com/correspondencias.php?idc=1212"
      },
      "geometry": {
        "type": "Point",
        "coordinates": [
          -16.4396,
          28.4724
        ]
      }
    },
    {
      "type": "Feature",
      "properties": {
        "parada_id": 1213,
        "parada_nombre": "PRIMAVERA",
        "latitud": 28.4716,
        "longitud": -16.4408,
        "parada_url": "http://www.titsa.com/correspondencias.php?idc=1213"
      },
      "geometry": {
        "type": "Point",
        "coordinates": [
          -16.4408,
          28.4716
        ]
      }
    },
    {
      "type": "Feature",
      "properties": {
        "parada_id": 1214,
        "parada_nombre": "FRANCISCO CRUZ DÍAZ",
        "latitud": 28.4696,
        "longitud": -16.4421,
        "parada_url": "http://www.titsa.com/correspondencias.php?idc=1214"
      },
      "geometry": {
        "type": "Point",
        "coordinates": [
          -16.4421,
          28.4696
        ]
      }
    },
    {
      "type": "Feature",
      "properties": {
        "parada_id": 1215,
        "parada_nombre": "LOS PERALES (T)",
        "latitud": 28.468,
        "longitud": -16.4434,
        "parada_url": "http://www.titsa.com/correspondencias.php?idc=1215"
      },
      "geometry": {
        "type": "Point",
        "coordinates": [
          -16.4434,
          28.468
        ]
      }
    },
    {
      "type": "Feature",
      "properties": {
        "parada_id": 1216,
        "parada_nombre": "FRANCISCO CRUZ DÍAZ",
        "latitud": 28.4695,
        "longitud": -16.4421,
        "parada_url": "http://www.titsa.com/correspondencias.php?idc=1216"
      },
      "geometry": {
        "type": "Point",
        "coordinates": [
          -16.4421,
          28.4695
        ]
      }
    },
    {
      "type": "Feature",
      "properties": {
        "parada_id": 1217,
        "parada_nombre": "LOS ANGELES",
        "latitud": 28.4724,
        "longitud": -16.4395,
        "parada_url": "http://www.titsa.com/correspondencias.php?idc=1217"
      },
      "geometry": {
        "type": "Point",
        "coordinates": [
          -16.4395,
          28.4724
        ]
      }
    },
    {
      "type": "Feature",
      "properties": {
        "parada_id": 1218,
        "parada_nombre": "EL SAUZAL (T)",
        "latitud": 28.4793,
        "longitud": -16.4367,
        "parada_url": "http://www.titsa.com/correspondencias.php?idc=1218"
      },
      "geometry": {
        "type": "Point",
        "coordinates": [
          -16.4367,
          28.4793
        ]
      }
    },
    {
      "type": "Feature",
      "properties": {
        "parada_id": 1219,
        "parada_nombre": "CENTRO DE SALUD",
        "latitud": 28.4799,
        "longitud": -16.4345,
        "parada_url": "http://www.titsa.com/correspondencias.php?idc=1219"
      },
      "geometry": {
        "type": "Point",
        "coordinates": [
          -16.4345,
          28.4799
        ]
      }
    },
    {
      "type": "Feature",
      "properties": {
        "parada_id": 1220,
        "parada_nombre": "OLIMPIA",
        "latitud": 28.48,
        "longitud": -16.4313,
        "parada_url": "http://www.titsa.com/correspondencias.php?idc=1220"
      },
      "geometry": {
        "type": "Point",
        "coordinates": [
          -16.4313,
          28.48
        ]
      }
    },
    {
      "type": "Feature",
      "properties": {
        "parada_id": 1221,
        "parada_nombre": "LA PIEDAD",
        "latitud": 28.482,
        "longitud": -16.4287,
        "parada_url": "http://www.titsa.com/correspondencias.php?idc=1221"
      },
      "geometry": {
        "type": "Point",
        "coordinates": [
          -16.4287,
          28.482
        ]
      }
    },
    {
      "type": "Feature",
      "properties": {
        "parada_id": 1222,
        "parada_nombre": "LOS GUANCHES",
        "latitud": 28.483,
        "longitud": -16.4268,
        "parada_url": "http://www.titsa.com/correspondencias.php?idc=1222"
      },
      "geometry": {
        "type": "Point",
        "coordinates": [
          -16.4268,
          28.483
        ]
      }
    },
    {
      "type": "Feature",
      "properties": {
        "parada_id": 1223,
        "parada_nombre": "LAS TOSCAS",
        "latitud": 28.4834,
        "longitud": -16.4231,
        "parada_url": "http://www.titsa.com/correspondencias.php?idc=1223"
      },
      "geometry": {
        "type": "Point",
        "coordinates": [
          -16.4231,
          28.4834
        ]
      }
    },
    {
      "type": "Feature",
      "properties": {
        "parada_id": 1224,
        "parada_nombre": "SANTA CATALINA  (T)",
        "latitud": 28.483,
        "longitud": -16.418,
        "parada_url": "http://www.titsa.com/correspondencias.php?idc=1224"
      },
      "geometry": {
        "type": "Point",
        "coordinates": [
          -16.418,
          28.483
        ]
      }
    },
    {
      "type": "Feature",
      "properties": {
        "parada_id": 1225,
        "parada_nombre": "CEMENTERIO",
        "latitud": 28.483,
        "longitud": -16.4158,
        "parada_url": "http://www.titsa.com/correspondencias.php?idc=1225"
      },
      "geometry": {
        "type": "Point",
        "coordinates": [
          -16.4158,
          28.483
        ]
      }
    },
    {
      "type": "Feature",
      "properties": {
        "parada_id": 1226,
        "parada_nombre": "EL CALVARIO",
        "latitud": 28.4841,
        "longitud": -16.4134,
        "parada_url": "http://www.titsa.com/correspondencias.php?idc=1226"
      },
      "geometry": {
        "type": "Point",
        "coordinates": [
          -16.4134,
          28.4841
        ]
      }
    },
    {
      "type": "Feature",
      "properties": {
        "parada_id": 1227,
        "parada_nombre": "EL POLE",
        "latitud": 28.4845,
        "longitud": -16.4114,
        "parada_url": "http://www.titsa.com/correspondencias.php?idc=1227"
      },
      "geometry": {
        "type": "Point",
        "coordinates": [
          -16.4114,
          28.4845
        ]
      }
    },
    {
      "type": "Feature",
      "properties": {
        "parada_id": 1228,
        "parada_nombre": "CARRETERA TEJINA",
        "latitud": 28.4846,
        "longitud": -16.4102,
        "parada_url": "http://www.titsa.com/correspondencias.php?idc=1228"
      },
      "geometry": {
        "type": "Point",
        "coordinates": [
          -16.4102,
          28.4846
        ]
      }
    },
    {
      "type": "Feature",
      "properties": {
        "parada_id": 1229,
        "parada_nombre": "VALERIO PADRÓN",
        "latitud": 28.4833,
        "longitud": -16.406,
        "parada_url": "http://www.titsa.com/correspondencias.php?idc=1229"
      },
      "geometry": {
        "type": "Point",
        "coordinates": [
          -16.406,
          28.4833
        ]
      }
    },
    {
      "type": "Feature",
      "properties": {
        "parada_id": 1230,
        "parada_nombre": "PEDRO FELIPE",
        "latitud": 28.4849,
        "longitud": -16.4033,
        "parada_url": "http://www.titsa.com/correspondencias.php?idc=1230"
      },
      "geometry": {
        "type": "Point",
        "coordinates": [
          -16.4033,
          28.4849
        ]
      }
    },
    {
      "type": "Feature",
      "properties": {
        "parada_id": 1231,
        "parada_nombre": "EL TORREÓN",
        "latitud": 28.4859,
        "longitud": -16.399,
        "parada_url": "http://www.titsa.com/correspondencias.php?idc=1231"
      },
      "geometry": {
        "type": "Point",
        "coordinates": [
          -16.399,
          28.4859
        ]
      }
    },
    {
      "type": "Feature",
      "properties": {
        "parada_id": 1232,
        "parada_nombre": "LOMO COLORADO",
        "latitud": 28.4862,
        "longitud": -16.3965,
        "parada_url": "http://www.titsa.com/correspondencias.php?idc=1232"
      },
      "geometry": {
        "type": "Point",
        "coordinates": [
          -16.3965,
          28.4862
        ]
      }
    },
    {
      "type": "Feature",
      "properties": {
        "parada_id": 1233,
        "parada_nombre": "NUEVO LAUREL",
        "latitud": 28.4854,
        "longitud": -16.3921,
        "parada_url": "http://www.titsa.com/correspondencias.php?idc=1233"
      },
      "geometry": {
        "type": "Point",
        "coordinates": [
          -16.3921,
          28.4854
        ]
      }
    },
    {
      "type": "Feature",
      "properties": {
        "parada_id": 1234,
        "parada_nombre": "LOS NARANJEROS (T)",
        "latitud": 28.4865,
        "longitud": -16.3899,
        "parada_url": "http://www.titsa.com/correspondencias.php?idc=1234"
      },
      "geometry": {
        "type": "Point",
        "coordinates": [
          -16.3899,
          28.4865
        ]
      }
    },
    {
      "type": "Feature",
      "properties": {
        "parada_id": 1235,
        "parada_nombre": "EL TRAZO (T)",
        "latitud": 28.4875,
        "longitud": -16.3865,
        "parada_url": "http://www.titsa.com/correspondencias.php?idc=1235"
      },
      "geometry": {
        "type": "Point",
        "coordinates": [
          -16.3865,
          28.4875
        ]
      }
    },
    {
      "type": "Feature",
      "properties": {
        "parada_id": 1236,
        "parada_nombre": "EL RODEO",
        "latitud": 28.4893,
        "longitud": -16.3803,
        "parada_url": "http://www.titsa.com/correspondencias.php?idc=1236"
      },
      "geometry": {
        "type": "Point",
        "coordinates": [
          -16.3803,
          28.4893
        ]
      }
    },
    {
      "type": "Feature",
      "properties": {
        "parada_id": 1237,
        "parada_nombre": "EL BOQUERÓN (T)",
        "latitud": 28.491,
        "longitud": -16.3757,
        "parada_url": "http://www.titsa.com/correspondencias.php?idc=1237"
      },
      "geometry": {
        "type": "Point",
        "coordinates": [
          -16.3757,
          28.491
        ]
      }
    },
    {
      "type": "Feature",
      "properties": {
        "parada_id": 1238,
        "parada_nombre": "EL CANDIL",
        "latitud": 28.4917,
        "longitud": -16.3715,
        "parada_url": "http://www.titsa.com/correspondencias.php?idc=1238"
      },
      "geometry": {
        "type": "Point",
        "coordinates": [
          -16.3715,
          28.4917
        ]
      }
    },
    {
      "type": "Feature",
      "properties": {
        "parada_id": 1239,
        "parada_nombre": "GUAMASA",
        "latitud": 28.4922,
        "longitud": -16.3669,
        "parada_url": "http://www.titsa.com/correspondencias.php?idc=1239"
      },
      "geometry": {
        "type": "Point",
        "coordinates": [
          -16.3669,
          28.4922
        ]
      }
    },
    {
      "type": "Feature",
      "properties": {
        "parada_id": 1240,
        "parada_nombre": "LA CRUZ CHICA (T)",
        "latitud": 28.4913,
        "longitud": -16.3622,
        "parada_url": "http://www.titsa.com/correspondencias.php?idc=1240"
      },
      "geometry": {
        "type": "Point",
        "coordinates": [
          -16.3622,
          28.4913
        ]
      }
    },
    {
      "type": "Feature",
      "properties": {
        "parada_id": 1241,
        "parada_nombre": "MOLINO VIEJO",
        "latitud": 28.4906,
        "longitud": -16.3554,
        "parada_url": "http://www.titsa.com/correspondencias.php?idc=1241"
      },
      "geometry": {
        "type": "Point",
        "coordinates": [
          -16.3554,
          28.4906
        ]
      }
    },
    {
      "type": "Feature",
      "properties": {
        "parada_id": 1242,
        "parada_nombre": "EL PORTEZUELO (T)",
        "latitud": 28.4899,
        "longitud": -16.3526,
        "parada_url": "http://www.titsa.com/correspondencias.php?idc=1242"
      },
      "geometry": {
        "type": "Point",
        "coordinates": [
          -16.3526,
          28.4899
        ]
      }
    },
    {
      "type": "Feature",
      "properties": {
        "parada_id": 1243,
        "parada_nombre": "NUEVO LAUREL",
        "latitud": 28.4853,
        "longitud": -16.3917,
        "parada_url": "http://www.titsa.com/correspondencias.php?idc=1243"
      },
      "geometry": {
        "type": "Point",
        "coordinates": [
          -16.3917,
          28.4853
        ]
      }
    },
    {
      "type": "Feature",
      "properties": {
        "parada_id": 1244,
        "parada_nombre": "EL LLANO",
        "latitud": 28.4828,
        "longitud": -16.3957,
        "parada_url": "http://www.titsa.com/correspondencias.php?idc=1244"
      },
      "geometry": {
        "type": "Point",
        "coordinates": [
          -16.3957,
          28.4828
        ]
      }
    },
    {
      "type": "Feature",
      "properties": {
        "parada_id": 1245,
        "parada_nombre": "EL TORREÓN",
        "latitud": 28.4811,
        "longitud": -16.4,
        "parada_url": "http://www.titsa.com/correspondencias.php?idc=1245"
      },
      "geometry": {
        "type": "Point",
        "coordinates": [
          -16.4,
          28.4811
        ]
      }
    },
    {
      "type": "Feature",
      "properties": {
        "parada_id": 1246,
        "parada_nombre": "EL CANTILLO (T)",
        "latitud": 28.4795,
        "longitud": -16.4031,
        "parada_url": "http://www.titsa.com/correspondencias.php?idc=1246"
      },
      "geometry": {
        "type": "Point",
        "coordinates": [
          -16.4031,
          28.4795
        ]
      }
    },
    {
      "type": "Feature",
      "properties": {
        "parada_id": 1247,
        "parada_nombre": "CORREOS",
        "latitud": 28.4783,
        "longitud": -16.4073,
        "parada_url": "http://www.titsa.com/correspondencias.php?idc=1247"
      },
      "geometry": {
        "type": "Point",
        "coordinates": [
          -16.4073,
          28.4783
        ]
      }
    },
    {
      "type": "Feature",
      "properties": {
        "parada_id": 1248,
        "parada_nombre": "SEBASTIÁN MACHADO",
        "latitud": 28.4779,
        "longitud": -16.4108,
        "parada_url": "http://www.titsa.com/correspondencias.php?idc=1248"
      },
      "geometry": {
        "type": "Point",
        "coordinates": [
          -16.4108,
          28.4779
        ]
      }
    },
    {
      "type": "Feature",
      "properties": {
        "parada_id": 1249,
        "parada_nombre": "PLAZA DE LA ESTACIÓN (T)",
        "latitud": 28.4767,
        "longitud": -16.4154,
        "parada_url": "http://www.titsa.com/correspondencias.php?idc=1249"
      },
      "geometry": {
        "type": "Point",
        "coordinates": [
          -16.4154,
          28.4767
        ]
      }
    },
    {
      "type": "Feature",
      "properties": {
        "parada_id": 1250,
        "parada_nombre": "LA FRONTERA",
        "latitud": 28.4748,
        "longitud": -16.4194,
        "parada_url": "http://www.titsa.com/correspondencias.php?idc=1250"
      },
      "geometry": {
        "type": "Point",
        "coordinates": [
          -16.4194,
          28.4748
        ]
      }
    },
    {
      "type": "Feature",
      "properties": {
        "parada_id": 1251,
        "parada_nombre": "EL MONTILLO",
        "latitud": 28.4731,
        "longitud": -16.4239,
        "parada_url": "http://www.titsa.com/correspondencias.php?idc=1251"
      },
      "geometry": {
        "type": "Point",
        "coordinates": [
          -16.4239,
          28.4731
        ]
      }
    },
    {
      "type": "Feature",
      "properties": {
        "parada_id": 1252,
        "parada_nombre": "LUIS DIEGO CUSCOY",
        "latitud": 28.4739,
        "longitud": -16.4274,
        "parada_url": "http://www.titsa.com/correspondencias.php?idc=1252"
      },
      "geometry": {
        "type": "Point",
        "coordinates": [
          -16.4274,
          28.4739
        ]
      }
    },
    {
      "type": "Feature",
      "properties": {
        "parada_id": 1253,
        "parada_nombre": "EL LAGAR (T)",
        "latitud": 28.4721,
        "longitud": -16.4323,
        "parada_url": "http://www.titsa.com/correspondencias.php?idc=1253"
      },
      "geometry": {
        "type": "Point",
        "coordinates": [
          -16.4323,
          28.4721
        ]
      }
    },
    {
      "type": "Feature",
      "properties": {
        "parada_id": 1254,
        "parada_nombre": "LAS MEJÍAS",
        "latitud": 28.4712,
        "longitud": -16.4332,
        "parada_url": "http://www.titsa.com/correspondencias.php?idc=1254"
      },
      "geometry": {
        "type": "Point",
        "coordinates": [
          -16.4332,
          28.4712
        ]
      }
    },
    {
      "type": "Feature",
      "properties": {
        "parada_id": 1255,
        "parada_nombre": "HERRERA",
        "latitud": 28.4752,
        "longitud": -16.4335,
        "parada_url": "http://www.titsa.com/correspondencias.php?idc=1255"
      },
      "geometry": {
        "type": "Point",
        "coordinates": [
          -16.4335,
          28.4752
        ]
      }
    },
    {
      "type": "Feature",
      "properties": {
        "parada_id": 1256,
        "parada_nombre": "LAS MACETAS",
        "latitud": 28.4751,
        "longitud": -16.4346,
        "parada_url": "http://www.titsa.com/correspondencias.php?idc=1256"
      },
      "geometry": {
        "type": "Point",
        "coordinates": [
          -16.4346,
          28.4751
        ]
      }
    },
    {
      "type": "Feature",
      "properties": {
        "parada_id": 1257,
        "parada_nombre": "SAN NICOLÁS",
        "latitud": 28.4772,
        "longitud": -16.4333,
        "parada_url": "http://www.titsa.com/correspondencias.php?idc=1257"
      },
      "geometry": {
        "type": "Point",
        "coordinates": [
          -16.4333,
          28.4772
        ]
      }
    },
    {
      "type": "Feature",
      "properties": {
        "parada_id": 1258,
        "parada_nombre": "EL CALVARIO",
        "latitud": 28.4799,
        "longitud": -16.4316,
        "parada_url": "http://www.titsa.com/correspondencias.php?idc=1258"
      },
      "geometry": {
        "type": "Point",
        "coordinates": [
          -16.4316,
          28.4799
        ]
      }
    },
    {
      "type": "Feature",
      "properties": {
        "parada_id": 1259,
        "parada_nombre": "EL CALVARIO",
        "latitud": 28.4799,
        "longitud": -16.4317,
        "parada_url": "http://www.titsa.com/correspondencias.php?idc=1259"
      },
      "geometry": {
        "type": "Point",
        "coordinates": [
          -16.4317,
          28.4799
        ]
      }
    },
    {
      "type": "Feature",
      "properties": {
        "parada_id": 1260,
        "parada_nombre": "SAN NICOLÁS",
        "latitud": 28.4772,
        "longitud": -16.4335,
        "parada_url": "http://www.titsa.com/correspondencias.php?idc=1260"
      },
      "geometry": {
        "type": "Point",
        "coordinates": [
          -16.4335,
          28.4772
        ]
      }
    },
    {
      "type": "Feature",
      "properties": {
        "parada_id": 1261,
        "parada_nombre": "LAS MACETAS",
        "latitud": 28.475,
        "longitud": -16.4345,
        "parada_url": "http://www.titsa.com/correspondencias.php?idc=1261"
      },
      "geometry": {
        "type": "Point",
        "coordinates": [
          -16.4345,
          28.475
        ]
      }
    },
    {
      "type": "Feature",
      "properties": {
        "parada_id": 1262,
        "parada_nombre": "HERRERA",
        "latitud": 28.4752,
        "longitud": -16.4337,
        "parada_url": "http://www.titsa.com/correspondencias.php?idc=1262"
      },
      "geometry": {
        "type": "Point",
        "coordinates": [
          -16.4337,
          28.4752
        ]
      }
    },
    {
      "type": "Feature",
      "properties": {
        "parada_id": 1263,
        "parada_nombre": "LAS MEJÍAS",
        "latitud": 28.4708,
        "longitud": -16.4335,
        "parada_url": "http://www.titsa.com/correspondencias.php?idc=1263"
      },
      "geometry": {
        "type": "Point",
        "coordinates": [
          -16.4335,
          28.4708
        ]
      }
    },
    {
      "type": "Feature",
      "properties": {
        "parada_id": 1264,
        "parada_nombre": "EL LAGAR (T)",
        "latitud": 28.4719,
        "longitud": -16.4323,
        "parada_url": "http://www.titsa.com/correspondencias.php?idc=1264"
      },
      "geometry": {
        "type": "Point",
        "coordinates": [
          -16.4323,
          28.4719
        ]
      }
    },
    {
      "type": "Feature",
      "properties": {
        "parada_id": 1265,
        "parada_nombre": "LUIS DIEGO CUSCOY",
        "latitud": 28.4738,
        "longitud": -16.4273,
        "parada_url": "http://www.titsa.com/correspondencias.php?idc=1265"
      },
      "geometry": {
        "type": "Point",
        "coordinates": [
          -16.4273,
          28.4738
        ]
      }
    },
    {
      "type": "Feature",
      "properties": {
        "parada_id": 1266,
        "parada_nombre": "EL MONTILLO",
        "latitud": 28.473,
        "longitud": -16.4239,
        "parada_url": "http://www.titsa.com/correspondencias.php?idc=1266"
      },
      "geometry": {
        "type": "Point",
        "coordinates": [
          -16.4239,
          28.473
        ]
      }
    },
    {
      "type": "Feature",
      "properties": {
        "parada_id": 1267,
        "parada_nombre": "LA FRONTERA",
        "latitud": 28.4747,
        "longitud": -16.4194,
        "parada_url": "http://www.titsa.com/correspondencias.php?idc=1267"
      },
      "geometry": {
        "type": "Point",
        "coordinates": [
          -16.4194,
          28.4747
        ]
      }
    },
    {
      "type": "Feature",
      "properties": {
        "parada_id": 1268,
        "parada_nombre": "PLAZA DE LA ESTACIÓN (T)",
        "latitud": 28.477,
        "longitud": -16.4149,
        "parada_url": "http://www.titsa.com/correspondencias.php?idc=1268"
      },
      "geometry": {
        "type": "Point",
        "coordinates": [
          -16.4149,
          28.477
        ]
      }
    },
    {
      "type": "Feature",
      "properties": {
        "parada_id": 1269,
        "parada_nombre": "SEBASTIÁN MACHADO",
        "latitud": 28.4779,
        "longitud": -16.4107,
        "parada_url": "http://www.titsa.com/correspondencias.php?idc=1269"
      },
      "geometry": {
        "type": "Point",
        "coordinates": [
          -16.4107,
          28.4779
        ]
      }
    },
    {
      "type": "Feature",
      "properties": {
        "parada_id": 1270,
        "parada_nombre": "CORREOS",
        "latitud": 28.4783,
        "longitud": -16.4075,
        "parada_url": "http://www.titsa.com/correspondencias.php?idc=1270"
      },
      "geometry": {
        "type": "Point",
        "coordinates": [
          -16.4075,
          28.4783
        ]
      }
    },
    {
      "type": "Feature",
      "properties": {
        "parada_id": 1271,
        "parada_nombre": "EL CANTILLO (T)",
        "latitud": 28.4787,
        "longitud": -16.4037,
        "parada_url": "http://www.titsa.com/correspondencias.php?idc=1271"
      },
      "geometry": {
        "type": "Point",
        "coordinates": [
          -16.4037,
          28.4787
        ]
      }
    },
    {
      "type": "Feature",
      "properties": {
        "parada_id": 1272,
        "parada_nombre": "EL TORREÓN",
        "latitud": 28.4813,
        "longitud": -16.3992,
        "parada_url": "http://www.titsa.com/correspondencias.php?idc=1272"
      },
      "geometry": {
        "type": "Point",
        "coordinates": [
          -16.3992,
          28.4813
        ]
      }
    },
    {
      "type": "Feature",
      "properties": {
        "parada_id": 1273,
        "parada_nombre": "EL LLANO",
        "latitud": 28.4832,
        "longitud": -16.395,
        "parada_url": "http://www.titsa.com/correspondencias.php?idc=1273"
      },
      "geometry": {
        "type": "Point",
        "coordinates": [
          -16.395,
          28.4832
        ]
      }
    },
    {
      "type": "Feature",
      "properties": {
        "parada_id": 1274,
        "parada_nombre": "NUEVO LAUREL",
        "latitud": 28.4851,
        "longitud": -16.3918,
        "parada_url": "http://www.titsa.com/correspondencias.php?idc=1274"
      },
      "geometry": {
        "type": "Point",
        "coordinates": [
          -16.3918,
          28.4851
        ]
      }
    },
    {
      "type": "Feature",
      "properties": {
        "parada_id": 1275,
        "parada_nombre": "EL PÚLPITO",
        "latitud": 28.49,
        "longitud": -16.3487,
        "parada_url": "http://www.titsa.com/correspondencias.php?idc=1275"
      },
      "geometry": {
        "type": "Point",
        "coordinates": [
          -16.3487,
          28.49
        ]
      }
    },
    {
      "type": "Feature",
      "properties": {
        "parada_id": 1279,
        "parada_nombre": "CHAMBERÍ",
        "latitud": 28.4524,
        "longitud": -16.2748,
        "parada_url": "http://www.titsa.com/correspondencias.php?idc=1279"
      },
      "geometry": {
        "type": "Point",
        "coordinates": [
          -16.2748,
          28.4524
        ]
      }
    },
    {
      "type": "Feature",
      "properties": {
        "parada_id": 1280,
        "parada_nombre": "HOSPITAL LA CANDELARIA",
        "latitud": 28.4479,
        "longitud": -16.2839,
        "parada_url": "http://www.titsa.com/correspondencias.php?idc=1280"
      },
      "geometry": {
        "type": "Point",
        "coordinates": [
          -16.2839,
          28.4479
        ]
      }
    },
    {
      "type": "Feature",
      "properties": {
        "parada_id": 1281,
        "parada_nombre": "NUEVO OBRERO",
        "latitud": 28.4479,
        "longitud": -16.2908,
        "parada_url": "http://www.titsa.com/correspondencias.php?idc=1281"
      },
      "geometry": {
        "type": "Point",
        "coordinates": [
          -16.2908,
          28.4479
        ]
      }
    },
    {
      "type": "Feature",
      "properties": {
        "parada_id": 1282,
        "parada_nombre": "HOSPITAL UNIVERSITARIO",
        "latitud": 28.4569,
        "longitud": -16.2938,
        "parada_url": "http://www.titsa.com/correspondencias.php?idc=1282"
      },
      "geometry": {
        "type": "Point",
        "coordinates": [
          -16.2938,
          28.4569
        ]
      }
    },
    {
      "type": "Feature",
      "properties": {
        "parada_id": 1283,
        "parada_nombre": "ANDRÓMEDA",
        "latitud": 28.4701,
        "longitud": -16.3071,
        "parada_url": "http://www.titsa.com/correspondencias.php?idc=1283"
      },
      "geometry": {
        "type": "Point",
        "coordinates": [
          -16.3071,
          28.4701
        ]
      }
    },
    {
      "type": "Feature",
      "properties": {
        "parada_id": 1288,
        "parada_nombre": "SAN ANTONIO",
        "latitud": 28.4874,
        "longitud": -16.3241,
        "parada_url": "http://www.titsa.com/correspondencias.php?idc=1288"
      },
      "geometry": {
        "type": "Point",
        "coordinates": [
          -16.3241,
          28.4874
        ]
      }
    },
    {
      "type": "Feature",
      "properties": {
        "parada_id": 1290,
        "parada_nombre": "SAN BENITO",
        "latitud": 28.4899,
        "longitud": -16.3266,
        "parada_url": "http://www.titsa.com/correspondencias.php?idc=1290"
      },
      "geometry": {
        "type": "Point",
        "coordinates": [
          -16.3266,
          28.4899
        ]
      }
    },
    {
      "type": "Feature",
      "properties": {
        "parada_id": 1291,
        "parada_nombre": "MARCOS REDONDO",
        "latitud": 28.4926,
        "longitud": -16.322,
        "parada_url": "http://www.titsa.com/correspondencias.php?idc=1291"
      },
      "geometry": {
        "type": "Point",
        "coordinates": [
          -16.322,
          28.4926
        ]
      }
    },
    {
      "type": "Feature",
      "properties": {
        "parada_id": 1292,
        "parada_nombre": "PASEO DE LOS ORAMAS",
        "latitud": 28.4955,
        "longitud": -16.3194,
        "parada_url": "http://www.titsa.com/correspondencias.php?idc=1292"
      },
      "geometry": {
        "type": "Point",
        "coordinates": [
          -16.3194,
          28.4955
        ]
      }
    },
    {
      "type": "Feature",
      "properties": {
        "parada_id": 1293,
        "parada_nombre": "POZO CABILDO",
        "latitud": 28.499,
        "longitud": -16.3151,
        "parada_url": "http://www.titsa.com/correspondencias.php?idc=1293"
      },
      "geometry": {
        "type": "Point",
        "coordinates": [
          -16.3151,
          28.499
        ]
      }
    },
    {
      "type": "Feature",
      "properties": {
        "parada_id": 1294,
        "parada_nombre": "REPÚBLICA ARGENTINA",
        "latitud": 28.5027,
        "longitud": -16.3125,
        "parada_url": "http://www.titsa.com/correspondencias.php?idc=1294"
      },
      "geometry": {
        "type": "Point",
        "coordinates": [
          -16.3125,
          28.5027
        ]
      }
    },
    {
      "type": "Feature",
      "properties": {
        "parada_id": 1298,
        "parada_nombre": "LA GORGOLANA",
        "latitud": 28.514,
        "longitud": -16.3083,
        "parada_url": "http://www.titsa.com/correspondencias.php?idc=1298"
      },
      "geometry": {
        "type": "Point",
        "coordinates": [
          -16.3083,
          28.514
        ]
      }
    },
    {
      "type": "Feature",
      "properties": {
        "parada_id": 1299,
        "parada_nombre": "EL PALOMAR",
        "latitud": 28.5147,
        "longitud": -16.3152,
        "parada_url": "http://www.titsa.com/correspondencias.php?idc=1299"
      },
      "geometry": {
        "type": "Point",
        "coordinates": [
          -16.3152,
          28.5147
        ]
      }
    },
    {
      "type": "Feature",
      "properties": {
        "parada_id": 1300,
        "parada_nombre": "PEDRO ÁLVAREZ",
        "latitud": 28.5178,
        "longitud": -16.3226,
        "parada_url": "http://www.titsa.com/correspondencias.php?idc=1300"
      },
      "geometry": {
        "type": "Point",
        "coordinates": [
          -16.3226,
          28.5178
        ]
      }
    },
    {
      "type": "Feature",
      "properties": {
        "parada_id": 1301,
        "parada_nombre": "I. NUEVAS TECNOLOGÍAS",
        "latitud": 28.5193,
        "longitud": -16.3281,
        "parada_url": "http://www.titsa.com/correspondencias.php?idc=1301"
      },
      "geometry": {
        "type": "Point",
        "coordinates": [
          -16.3281,
          28.5193
        ]
      }
    },
    {
      "type": "Feature",
      "properties": {
        "parada_id": 1302,
        "parada_nombre": "LOS LAURELES",
        "latitud": 28.5192,
        "longitud": -16.3317,
        "parada_url": "http://www.titsa.com/correspondencias.php?idc=1302"
      },
      "geometry": {
        "type": "Point",
        "coordinates": [
          -16.3317,
          28.5192
        ]
      }
    },
    {
      "type": "Feature",
      "properties": {
        "parada_id": 1303,
        "parada_nombre": "TEGUESTE",
        "latitud": 28.5212,
        "longitud": -16.3367,
        "parada_url": "http://www.titsa.com/correspondencias.php?idc=1303"
      },
      "geometry": {
        "type": "Point",
        "coordinates": [
          -16.3367,
          28.5212
        ]
      }
    },
    {
      "type": "Feature",
      "properties": {
        "parada_id": 1304,
        "parada_nombre": "CAMINO VIEJO",
        "latitud": 28.5225,
        "longitud": -16.3424,
        "parada_url": "http://www.titsa.com/correspondencias.php?idc=1304"
      },
      "geometry": {
        "type": "Point",
        "coordinates": [
          -16.3424,
          28.5225
        ]
      }
    },
    {
      "type": "Feature",
      "properties": {
        "parada_id": 1305,
        "parada_nombre": "LAS TOSCAS",
        "latitud": 28.5232,
        "longitud": -16.346,
        "parada_url": "http://www.titsa.com/correspondencias.php?idc=1305"
      },
      "geometry": {
        "type": "Point",
        "coordinates": [
          -16.346,
          28.5232
        ]
      }
    },
    {
      "type": "Feature",
      "properties": {
        "parada_id": 1306,
        "parada_nombre": "EL SOCORRO",
        "latitud": 28.5239,
        "longitud": -16.349,
        "parada_url": "http://www.titsa.com/correspondencias.php?idc=1306"
      },
      "geometry": {
        "type": "Point",
        "coordinates": [
          -16.349,
          28.5239
        ]
      }
    },
    {
      "type": "Feature",
      "properties": {
        "parada_id": 1307,
        "parada_nombre": "TAMARCO (T)",
        "latitud": 28.5242,
        "longitud": -16.3507,
        "parada_url": "http://www.titsa.com/correspondencias.php?idc=1307"
      },
      "geometry": {
        "type": "Point",
        "coordinates": [
          -16.3507,
          28.5242
        ]
      }
    },
    {
      "type": "Feature",
      "properties": {
        "parada_id": 1308,
        "parada_nombre": "CUEVA JURADA",
        "latitud": 28.5279,
        "longitud": -16.3533,
        "parada_url": "http://www.titsa.com/correspondencias.php?idc=1308"
      },
      "geometry": {
        "type": "Point",
        "coordinates": [
          -16.3533,
          28.5279
        ]
      }
    },
    {
      "type": "Feature",
      "properties": {
        "parada_id": 1309,
        "parada_nombre": "LA ASOMADA",
        "latitud": 28.5294,
        "longitud": -16.3567,
        "parada_url": "http://www.titsa.com/correspondencias.php?idc=1309"
      },
      "geometry": {
        "type": "Point",
        "coordinates": [
          -16.3567,
          28.5294
        ]
      }
    },
    {
      "type": "Feature",
      "properties": {
        "parada_id": 1310,
        "parada_nombre": "PATA RAJADA",
        "latitud": 28.53,
        "longitud": -16.3595,
        "parada_url": "http://www.titsa.com/correspondencias.php?idc=1310"
      },
      "geometry": {
        "type": "Point",
        "coordinates": [
          -16.3595,
          28.53
        ]
      }
    },
    {
      "type": "Feature",
      "properties": {
        "parada_id": 1311,
        "parada_nombre": "EL CEMENTERIO",
        "latitud": 28.5319,
        "longitud": -16.3595,
        "parada_url": "http://www.titsa.com/correspondencias.php?idc=1311"
      },
      "geometry": {
        "type": "Point",
        "coordinates": [
          -16.3595,
          28.5319
        ]
      }
    },
    {
      "type": "Feature",
      "properties": {
        "parada_id": 1312,
        "parada_nombre": "TOMÁS GONZÁLEZ RIVERO",
        "latitud": 28.5342,
        "longitud": -16.3606,
        "parada_url": "http://www.titsa.com/correspondencias.php?idc=1312"
      },
      "geometry": {
        "type": "Point",
        "coordinates": [
          -16.3606,
          28.5342
        ]
      }
    },
    {
      "type": "Feature",
      "properties": {
        "parada_id": 1313,
        "parada_nombre": "EL PUENTE",
        "latitud": 28.536,
        "longitud": -16.3587,
        "parada_url": "http://www.titsa.com/correspondencias.php?idc=1313"
      },
      "geometry": {
        "type": "Point",
        "coordinates": [
          -16.3587,
          28.536
        ]
      }
    },
    {
      "type": "Feature",
      "properties": {
        "parada_id": 1314,
        "parada_nombre": "FINCA JOVER",
        "latitud": 28.5429,
        "longitud": -16.3559,
        "parada_url": "http://www.titsa.com/correspondencias.php?idc=1314"
      },
      "geometry": {
        "type": "Point",
        "coordinates": [
          -16.3559,
          28.5429
        ]
      }
    },
    {
      "type": "Feature",
      "properties": {
        "parada_id": 1315,
        "parada_nombre": "CLUB NAUTICO",
        "latitud": 28.5446,
        "longitud": -16.3528,
        "parada_url": "http://www.titsa.com/correspondencias.php?idc=1315"
      },
      "geometry": {
        "type": "Point",
        "coordinates": [
          -16.3528,
          28.5446
        ]
      }
    },
    {
      "type": "Feature",
      "properties": {
        "parada_id": 1316,
        "parada_nombre": "PORLIER",
        "latitud": 28.5453,
        "longitud": -16.3505,
        "parada_url": "http://www.titsa.com/correspondencias.php?idc=1316"
      },
      "geometry": {
        "type": "Point",
        "coordinates": [
          -16.3505,
          28.5453
        ]
      }
    },
    {
      "type": "Feature",
      "properties": {
        "parada_id": 1317,
        "parada_nombre": "EL RIEGO",
        "latitud": 28.5508,
        "longitud": -16.3488,
        "parada_url": "http://www.titsa.com/correspondencias.php?idc=1317"
      },
      "geometry": {
        "type": "Point",
        "coordinates": [
          -16.3488,
          28.5508
        ]
      }
    },
    {
      "type": "Feature",
      "properties": {
        "parada_id": 1318,
        "parada_nombre": "BAJAMAR",
        "latitud": 28.5538,
        "longitud": -16.3448,
        "parada_url": "http://www.titsa.com/correspondencias.php?idc=1318"
      },
      "geometry": {
        "type": "Point",
        "coordinates": [
          -16.3448,
          28.5538
        ]
      }
    },
    {
      "type": "Feature",
      "properties": {
        "parada_id": 1319,
        "parada_nombre": "EL SOL",
        "latitud": 28.5556,
        "longitud": -16.3413,
        "parada_url": "http://www.titsa.com/correspondencias.php?idc=1319"
      },
      "geometry": {
        "type": "Point",
        "coordinates": [
          -16.3413,
          28.5556
        ]
      }
    },
    {
      "type": "Feature",
      "properties": {
        "parada_id": 1320,
        "parada_nombre": "NEPTUNO",
        "latitud": 28.5554,
        "longitud": -16.3382,
        "parada_url": "http://www.titsa.com/correspondencias.php?idc=1320"
      },
      "geometry": {
        "type": "Point",
        "coordinates": [
          -16.3382,
          28.5554
        ]
      }
    },
    {
      "type": "Feature",
      "properties": {
        "parada_id": 1321,
        "parada_nombre": "CUESTA SABANDA",
        "latitud": 28.5597,
        "longitud": -16.3321,
        "parada_url": "http://www.titsa.com/correspondencias.php?idc=1321"
      },
      "geometry": {
        "type": "Point",
        "coordinates": [
          -16.3321,
          28.5597
        ]
      }
    },
    {
      "type": "Feature",
      "properties": {
        "parada_id": 1322,
        "parada_nombre": "LA HOYA",
        "latitud": 28.564,
        "longitud": -16.3309,
        "parada_url": "http://www.titsa.com/correspondencias.php?idc=1322"
      },
      "geometry": {
        "type": "Point",
        "coordinates": [
          -16.3309,
          28.564
        ]
      }
    },
    {
      "type": "Feature",
      "properties": {
        "parada_id": 1323,
        "parada_nombre": "LA PUNTA",
        "latitud": 28.5673,
        "longitud": -16.3285,
        "parada_url": "http://www.titsa.com/correspondencias.php?idc=1323"
      },
      "geometry": {
        "type": "Point",
        "coordinates": [
          -16.3285,
          28.5673
        ]
      }
    },
    {
      "type": "Feature",
      "properties": {
        "parada_id": 1324,
        "parada_nombre": "SAN MATEO",
        "latitud": 28.5687,
        "longitud": -16.3251,
        "parada_url": "http://www.titsa.com/correspondencias.php?idc=1324"
      },
      "geometry": {
        "type": "Point",
        "coordinates": [
          -16.3251,
          28.5687
        ]
      }
    },
    {
      "type": "Feature",
      "properties": {
        "parada_id": 1325,
        "parada_nombre": "EL CASTILLO",
        "latitud": 28.5693,
        "longitud": -16.3235,
        "parada_url": "http://www.titsa.com/correspondencias.php?idc=1325"
      },
      "geometry": {
        "type": "Point",
        "coordinates": [
          -16.3235,
          28.5693
        ]
      }
    },
    {
      "type": "Feature",
      "properties": {
        "parada_id": 1326,
        "parada_nombre": "EL TANQUE",
        "latitud": 28.5695,
        "longitud": -16.3197,
        "parada_url": "http://www.titsa.com/correspondencias.php?idc=1326"
      },
      "geometry": {
        "type": "Point",
        "coordinates": [
          -16.3197,
          28.5695
        ]
      }
    },
    {
      "type": "Feature",
      "properties": {
        "parada_id": 1327,
        "parada_nombre": "PUNTA DEL HIDALGO",
        "latitud": 28.5708,
        "longitud": -16.3184,
        "parada_url": "http://www.titsa.com/correspondencias.php?idc=1327"
      },
      "geometry": {
        "type": "Point",
        "coordinates": [
          -16.3184,
          28.5708
        ]
      }
    },
    {
      "type": "Feature",
      "properties": {
        "parada_id": 1328,
        "parada_nombre": "EL TANQUE",
        "latitud": 28.5695,
        "longitud": -16.32,
        "parada_url": "http://www.titsa.com/correspondencias.php?idc=1328"
      },
      "geometry": {
        "type": "Point",
        "coordinates": [
          -16.32,
          28.5695
        ]
      }
    },
    {
      "type": "Feature",
      "properties": {
        "parada_id": 1329,
        "parada_nombre": "EL CASTILLO",
        "latitud": 28.5693,
        "longitud": -16.3236,
        "parada_url": "http://www.titsa.com/correspondencias.php?idc=1329"
      },
      "geometry": {
        "type": "Point",
        "coordinates": [
          -16.3236,
          28.5693
        ]
      }
    },
    {
      "type": "Feature",
      "properties": {
        "parada_id": 1330,
        "parada_nombre": "SAN MATEO",
        "latitud": 28.5687,
        "longitud": -16.3253,
        "parada_url": "http://www.titsa.com/correspondencias.php?idc=1330"
      },
      "geometry": {
        "type": "Point",
        "coordinates": [
          -16.3253,
          28.5687
        ]
      }
    },
    {
      "type": "Feature",
      "properties": {
        "parada_id": 1331,
        "parada_nombre": "LA PUNTA",
        "latitud": 28.5667,
        "longitud": -16.3288,
        "parada_url": "http://www.titsa.com/correspondencias.php?idc=1331"
      },
      "geometry": {
        "type": "Point",
        "coordinates": [
          -16.3288,
          28.5667
        ]
      }
    },
    {
      "type": "Feature",
      "properties": {
        "parada_id": 1332,
        "parada_nombre": "LA HOYA",
        "latitud": 28.5642,
        "longitud": -16.3307,
        "parada_url": "http://www.titsa.com/correspondencias.php?idc=1332"
      },
      "geometry": {
        "type": "Point",
        "coordinates": [
          -16.3307,
          28.5642
        ]
      }
    },
    {
      "type": "Feature",
      "properties": {
        "parada_id": 1333,
        "parada_nombre": "CUESTA SABANDA",
        "latitud": 28.5598,
        "longitud": -16.3322,
        "parada_url": "http://www.titsa.com/correspondencias.php?idc=1333"
      },
      "geometry": {
        "type": "Point",
        "coordinates": [
          -16.3322,
          28.5598
        ]
      }
    },
    {
      "type": "Feature",
      "properties": {
        "parada_id": 1334,
        "parada_nombre": "NEPTUNO",
        "latitud": 28.5554,
        "longitud": -16.338,
        "parada_url": "http://www.titsa.com/correspondencias.php?idc=1334"
      },
      "geometry": {
        "type": "Point",
        "coordinates": [
          -16.338,
          28.5554
        ]
      }
    },
    {
      "type": "Feature",
      "properties": {
        "parada_id": 1335,
        "parada_nombre": "EL SOL",
        "latitud": 28.5556,
        "longitud": -16.3417,
        "parada_url": "http://www.titsa.com/correspondencias.php?idc=1335"
      },
      "geometry": {
        "type": "Point",
        "coordinates": [
          -16.3417,
          28.5556
        ]
      }
    },
    {
      "type": "Feature",
      "properties": {
        "parada_id": 1336,
        "parada_nombre": "BAJAMAR",
        "latitud": 28.5538,
        "longitud": -16.3449,
        "parada_url": "http://www.titsa.com/correspondencias.php?idc=1336"
      },
      "geometry": {
        "type": "Point",
        "coordinates": [
          -16.3449,
          28.5538
        ]
      }
    },
    {
      "type": "Feature",
      "properties": {
        "parada_id": 1337,
        "parada_nombre": "EL RIEGO",
        "latitud": 28.5507,
        "longitud": -16.349,
        "parada_url": "http://www.titsa.com/correspondencias.php?idc=1337"
      },
      "geometry": {
        "type": "Point",
        "coordinates": [
          -16.349,
          28.5507
        ]
      }
    },
    {
      "type": "Feature",
      "properties": {
        "parada_id": 1338,
        "parada_nombre": "PORLIER",
        "latitud": 28.5454,
        "longitud": -16.3508,
        "parada_url": "http://www.titsa.com/correspondencias.php?idc=1338"
      },
      "geometry": {
        "type": "Point",
        "coordinates": [
          -16.3508,
          28.5454
        ]
      }
    },
    {
      "type": "Feature",
      "properties": {
        "parada_id": 1339,
        "parada_nombre": "CLUB NAUTICO",
        "latitud": 28.5447,
        "longitud": -16.353,
        "parada_url": "http://www.titsa.com/correspondencias.php?idc=1339"
      },
      "geometry": {
        "type": "Point",
        "coordinates": [
          -16.353,
          28.5447
        ]
      }
    },
    {
      "type": "Feature",
      "properties": {
        "parada_id": 1340,
        "parada_nombre": "FINCA JOVER",
        "latitud": 28.543,
        "longitud": -16.3559,
        "parada_url": "http://www.titsa.com/correspondencias.php?idc=1340"
      },
      "geometry": {
        "type": "Point",
        "coordinates": [
          -16.3559,
          28.543
        ]
      }
    },
    {
      "type": "Feature",
      "properties": {
        "parada_id": 1341,
        "parada_nombre": "EL PUENTE",
        "latitud": 28.5362,
        "longitud": -16.3588,
        "parada_url": "http://www.titsa.com/correspondencias.php?idc=1341"
      },
      "geometry": {
        "type": "Point",
        "coordinates": [
          -16.3588,
          28.5362
        ]
      }
    },
    {
      "type": "Feature",
      "properties": {
        "parada_id": 1342,
        "parada_nombre": "TEJINA",
        "latitud": 28.5351,
        "longitud": -16.3609,
        "parada_url": "http://www.titsa.com/correspondencias.php?idc=1342"
      },
      "geometry": {
        "type": "Point",
        "coordinates": [
          -16.3609,
          28.5351
        ]
      }
    },
    {
      "type": "Feature",
      "properties": {
        "parada_id": 1343,
        "parada_nombre": "EL RAMAL (T)",
        "latitud": 28.5334,
        "longitud": -16.362,
        "parada_url": "http://www.titsa.com/correspondencias.php?idc=1343"
      },
      "geometry": {
        "type": "Point",
        "coordinates": [
          -16.362,
          28.5334
        ]
      }
    },
    {
      "type": "Feature",
      "properties": {
        "parada_id": 1344,
        "parada_nombre": "EL CEMENTERIO",
        "latitud": 28.5321,
        "longitud": -16.3596,
        "parada_url": "http://www.titsa.com/correspondencias.php?idc=1344"
      },
      "geometry": {
        "type": "Point",
        "coordinates": [
          -16.3596,
          28.5321
        ]
      }
    },
    {
      "type": "Feature",
      "properties": {
        "parada_id": 1345,
        "parada_nombre": "PATA RAJADA",
        "latitud": 28.5299,
        "longitud": -16.3596,
        "parada_url": "http://www.titsa.com/correspondencias.php?idc=1345"
      },
      "geometry": {
        "type": "Point",
        "coordinates": [
          -16.3596,
          28.5299
        ]
      }
    },
    {
      "type": "Feature",
      "properties": {
        "parada_id": 1346,
        "parada_nombre": "LA ASOMADA",
        "latitud": 28.5292,
        "longitud": -16.3561,
        "parada_url": "http://www.titsa.com/correspondencias.php?idc=1346"
      },
      "geometry": {
        "type": "Point",
        "coordinates": [
          -16.3561,
          28.5292
        ]
      }
    },
    {
      "type": "Feature",
      "properties": {
        "parada_id": 1347,
        "parada_nombre": "CUEVA JURADA",
        "latitud": 28.5263,
        "longitud": -16.3524,
        "parada_url": "http://www.titsa.com/correspondencias.php?idc=1347"
      },
      "geometry": {
        "type": "Point",
        "coordinates": [
          -16.3524,
          28.5263
        ]
      }
    },
    {
      "type": "Feature",
      "properties": {
        "parada_id": 1348,
        "parada_nombre": "TAMARCO (T)",
        "latitud": 28.5244,
        "longitud": -16.3514,
        "parada_url": "http://www.titsa.com/correspondencias.php?idc=1348"
      },
      "geometry": {
        "type": "Point",
        "coordinates": [
          -16.3514,
          28.5244
        ]
      }
    },
    {
      "type": "Feature",
      "properties": {
        "parada_id": 1349,
        "parada_nombre": "EL SOCORRO",
        "latitud": 28.5238,
        "longitud": -16.3494,
        "parada_url": "http://www.titsa.com/correspondencias.php?idc=1349"
      },
      "geometry": {
        "type": "Point",
        "coordinates": [
          -16.3494,
          28.5238
        ]
      }
    },
    {
      "type": "Feature",
      "properties": {
        "parada_id": 1350,
        "parada_nombre": "LAS TOSCAS",
        "latitud": 28.5231,
        "longitud": -16.346,
        "parada_url": "http://www.titsa.com/correspondencias.php?idc=1350"
      },
      "geometry": {
        "type": "Point",
        "coordinates": [
          -16.346,
          28.5231
        ]
      }
    },
    {
      "type": "Feature",
      "properties": {
        "parada_id": 1351,
        "parada_nombre": "CAMINO VIEJO",
        "latitud": 28.5225,
        "longitud": -16.3425,
        "parada_url": "http://www.titsa.com/correspondencias.php?idc=1351"
      },
      "geometry": {
        "type": "Point",
        "coordinates": [
          -16.3425,
          28.5225
        ]
      }
    },
    {
      "type": "Feature",
      "properties": {
        "parada_id": 1352,
        "parada_nombre": "TEGUESTE",
        "latitud": 28.5213,
        "longitud": -16.3375,
        "parada_url": "http://www.titsa.com/correspondencias.php?idc=1352"
      },
      "geometry": {
        "type": "Point",
        "coordinates": [
          -16.3375,
          28.5213
        ]
      }
    },
    {
      "type": "Feature",
      "properties": {
        "parada_id": 1353,
        "parada_nombre": "LOS LAURELES",
        "latitud": 28.5191,
        "longitud": -16.3315,
        "parada_url": "http://www.titsa.com/correspondencias.php?idc=1353"
      },
      "geometry": {
        "type": "Point",
        "coordinates": [
          -16.3315,
          28.5191
        ]
      }
    },
    {
      "type": "Feature",
      "properties": {
        "parada_id": 1354,
        "parada_nombre": "NUEVAS TECNOLOGÍAS",
        "latitud": 28.5192,
        "longitud": -16.3282,
        "parada_url": "http://www.titsa.com/correspondencias.php?idc=1354"
      },
      "geometry": {
        "type": "Point",
        "coordinates": [
          -16.3282,
          28.5192
        ]
      }
    },
    {
      "type": "Feature",
      "properties": {
        "parada_id": 1355,
        "parada_nombre": "PEDRO ÁLVAREZ",
        "latitud": 28.5172,
        "longitud": -16.3211,
        "parada_url": "http://www.titsa.com/correspondencias.php?idc=1355"
      },
      "geometry": {
        "type": "Point",
        "coordinates": [
          -16.3211,
          28.5172
        ]
      }
    },
    {
      "type": "Feature",
      "properties": {
        "parada_id": 1356,
        "parada_nombre": "EL PALOMAR",
        "latitud": 28.5145,
        "longitud": -16.315,
        "parada_url": "http://www.titsa.com/correspondencias.php?idc=1356"
      },
      "geometry": {
        "type": "Point",
        "coordinates": [
          -16.315,
          28.5145
        ]
      }
    },
    {
      "type": "Feature",
      "properties": {
        "parada_id": 1357,
        "parada_nombre": "LA GORGOLANA",
        "latitud": 28.5138,
        "longitud": -16.3092,
        "parada_url": "http://www.titsa.com/correspondencias.php?idc=1357"
      },
      "geometry": {
        "type": "Point",
        "coordinates": [
          -16.3092,
          28.5138
        ]
      }
    },
    {
      "type": "Feature",
      "properties": {
        "parada_id": 1361,
        "parada_nombre": "REPÚBLICA ARGENTINA",
        "latitud": 28.503,
        "longitud": -16.3125,
        "parada_url": "http://www.titsa.com/correspondencias.php?idc=1361"
      },
      "geometry": {
        "type": "Point",
        "coordinates": [
          -16.3125,
          28.503
        ]
      }
    },
    {
      "type": "Feature",
      "properties": {
        "parada_id": 1363,
        "parada_nombre": "PARQUE DE LA VEGA",
        "latitud": 28.4958,
        "longitud": -16.3136,
        "parada_url": "http://www.titsa.com/correspondencias.php?idc=1363"
      },
      "geometry": {
        "type": "Point",
        "coordinates": [
          -16.3136,
          28.4958
        ]
      }
    },
    {
      "type": "Feature",
      "properties": {
        "parada_id": 1364,
        "parada_nombre": "PLAZA DEL CRISTO",
        "latitud": 28.4929,
        "longitud": -16.314,
        "parada_url": "http://www.titsa.com/correspondencias.php?idc=1364"
      },
      "geometry": {
        "type": "Point",
        "coordinates": [
          -16.314,
          28.4929
        ]
      }
    },
    {
      "type": "Feature",
      "properties": {
        "parada_id": 1365,
        "parada_nombre": "TABARES DE CALA",
        "latitud": 28.4906,
        "longitud": -16.3147,
        "parada_url": "http://www.titsa.com/correspondencias.php?idc=1365"
      },
      "geometry": {
        "type": "Point",
        "coordinates": [
          -16.3147,
          28.4906
        ]
      }
    },
    {
      "type": "Feature",
      "properties": {
        "parada_id": 1366,
        "parada_nombre": "DEÁN PALAHI",
        "latitud": 28.4886,
        "longitud": -16.3155,
        "parada_url": "http://www.titsa.com/correspondencias.php?idc=1366"
      },
      "geometry": {
        "type": "Point",
        "coordinates": [
          -16.3155,
          28.4886
        ]
      }
    },
    {
      "type": "Feature",
      "properties": {
        "parada_id": 1369,
        "parada_nombre": "CAMPUS",
        "latitud": 28.4809,
        "longitud": -16.3132,
        "parada_url": "http://www.titsa.com/correspondencias.php?idc=1369"
      },
      "geometry": {
        "type": "Point",
        "coordinates": [
          -16.3132,
          28.4809
        ]
      }
    },
    {
      "type": "Feature",
      "properties": {
        "parada_id": 1370,
        "parada_nombre": "IES LA LABORAL",
        "latitud": 28.4781,
        "longitud": -16.313,
        "parada_url": "http://www.titsa.com/correspondencias.php?idc=1370"
      },
      "geometry": {
        "type": "Point",
        "coordinates": [
          -16.313,
          28.4781
        ]
      }
    },
    {
      "type": "Feature",
      "properties": {
        "parada_id": 1372,
        "parada_nombre": "SANTIAGO MARTÍN",
        "latitud": 28.4581,
        "longitud": -16.2955,
        "parada_url": "http://www.titsa.com/correspondencias.php?idc=1372"
      },
      "geometry": {
        "type": "Point",
        "coordinates": [
          -16.2955,
          28.4581
        ]
      }
    },
    {
      "type": "Feature",
      "properties": {
        "parada_id": 1373,
        "parada_nombre": "HOSPITAL UNIVERSITARIO",
        "latitud": 28.4548,
        "longitud": -16.2922,
        "parada_url": "http://www.titsa.com/correspondencias.php?idc=1373"
      },
      "geometry": {
        "type": "Point",
        "coordinates": [
          -16.2922,
          28.4548
        ]
      }
    },
    {
      "type": "Feature",
      "properties": {
        "parada_id": 1374,
        "parada_nombre": "NUEVO OBRERO",
        "latitud": 28.4466,
        "longitud": -16.2897,
        "parada_url": "http://www.titsa.com/correspondencias.php?idc=1374"
      },
      "geometry": {
        "type": "Point",
        "coordinates": [
          -16.2897,
          28.4466
        ]
      }
    },
    {
      "type": "Feature",
      "properties": {
        "parada_id": 1375,
        "parada_nombre": "HOSPITAL LA CANDELARIA",
        "latitud": 28.4475,
        "longitud": -16.2842,
        "parada_url": "http://www.titsa.com/correspondencias.php?idc=1375"
      },
      "geometry": {
        "type": "Point",
        "coordinates": [
          -16.2842,
          28.4475
        ]
      }
    },
    {
      "type": "Feature",
      "properties": {
        "parada_id": 1376,
        "parada_nombre": "CEMENTERIO",
        "latitud": 28.4507,
        "longitud": -16.2771,
        "parada_url": "http://www.titsa.com/correspondencias.php?idc=1376"
      },
      "geometry": {
        "type": "Point",
        "coordinates": [
          -16.2771,
          28.4507
        ]
      }
    },
    {
      "type": "Feature",
      "properties": {
        "parada_id": 1378,
        "parada_nombre": "MANUEL HERMOSO ROJAS",
        "latitud": 28.4568,
        "longitud": -16.2609,
        "parada_url": "http://www.titsa.com/correspondencias.php?idc=1378"
      },
      "geometry": {
        "type": "Point",
        "coordinates": [
          -16.2609,
          28.4568
        ]
      }
    },
    {
      "type": "Feature",
      "properties": {
        "parada_id": 1381,
        "parada_nombre": "OFRA",
        "latitud": 28.4603,
        "longitud": -16.2825,
        "parada_url": "http://www.titsa.com/correspondencias.php?idc=1381"
      },
      "geometry": {
        "type": "Point",
        "coordinates": [
          -16.2825,
          28.4603
        ]
      }
    },
    {
      "type": "Feature",
      "properties": {
        "parada_id": 1382,
        "parada_nombre": "VISTABELLA (T)",
        "latitud": 28.4659,
        "longitud": -16.2829,
        "parada_url": "http://www.titsa.com/correspondencias.php?idc=1382"
      },
      "geometry": {
        "type": "Point",
        "coordinates": [
          -16.2829,
          28.4659
        ]
      }
    },
    {
      "type": "Feature",
      "properties": {
        "parada_id": 1383,
        "parada_nombre": "LA CUESTA (T)",
        "latitud": 28.4682,
        "longitud": -16.2866,
        "parada_url": "http://www.titsa.com/correspondencias.php?idc=1383"
      },